{"name": "Dwayne Matthew 'T Hart", "location": "Cairns North, QLD", "telephone": "0412 979 978", "business": "Replenishable Energy"}
{"name": "Tamanna .", "location": "Ellenbrook, WA", "telephone": "1300770164", "business": "A&A Teleservices"}
{"name": "Simon A'Court", "location": "Marangaroo, WA", "telephone": "0498 121 461", "business": "Radiant Electrical (WA)"}
{"name": "Yestin David Aaskov", "location": "Graceville, QLD", "telephone": "0452 599 195", "business": "Coastal Air & Electric"}
{"name": "Kamel Ababsa", "location": "Carlingford, NSW", "telephone": "0402 908 516", "business": "Sole Trader"}
{"name": "Ronell Abad", "location": "Blue Haven, NSW", "telephone": "0423 855 967", "business": "Symmetry Solar"}
{"name": "Ali Haidar Abbas", "location": "Bennett Springs, WA", "telephone": "0402 562 191", "business": "NHN Electrical"}
{"name": "Nasri Abdelqader", "location": "Casula, NSW", "telephone": "0415 229 913", "business": "Sole Trader"}
{"name": "Billal Abdou", "location": "Seaholme, VIC", "telephone": "0498 402 790", "business": "ESS Electrical & solar services"}
{"name": "Sam Abdou", "location": "Williamstown, VIC", "telephone": "0419 367 866", "business": "Engaged Electrical Service"}
{"name": "Omar A Abdul Wahab", "location": "Oxford Falls, NSW", "telephone": "02 9016 6555", "business": "CC Pines"}
{"name": "Nuri Abdulioglu", "location": "Gladstone Park, VIC", "telephone": "04 1393 5969", "business": "Melbourne Sparky Pty Ltd"}
{"name": "Faesal Abdurrahman Hamzah", "location": "TRANMERE, SA", "telephone": "0421 780 171", "business": "Worley"}
{"name": "Nathan Abdy", "location": "Yanchep, WA", "telephone": "0416 335 520", "business": "NATHAN ABDY ELECTRICAL"}
{"name": "Saeed Abedi", "location": "Wantirna, VIC", "telephone": "0459 930 318", "business": "Sole Trader"}
{"name": "Benjamin Abela", "location": "Dandenong, VIC", "telephone": "466875076", "business": "Harvest Renewables"}
{"name": "George Abernathy", "location": "Bungendore, NSW", "telephone": "0438198060", "business": "Avionix inc"}
{"name": "Chulanimala Abeysirinarayana Lokuruge", "location": "Glenwood, NSW", "telephone": "0413 811 480", "business": "Ruhunu Solar Energy Management Systems Pty. Ltd."}
{"name": "Franz Abfalter", "location": "Ringwood North, VIC", "telephone": "98790155", "business": "Abmaranz Electrical Company"}
{"name": "Michel Abi-Hanna", "location": "Freshwater, NSW", "telephone": "0405 135 139", "business": "Abi-Hanna Group Pty Ltd T/A EightSix Electrical"}
{"name": "Charbel Abi-Rizk", "location": "Dundas, NSW", "telephone": "0423590507", "business": "Brighter Sparks Electrical PTY LTD"}
{"name": "Saad Abid", "location": "Parramatta, NSW", "telephone": "02 8824 0407", "business": "CSR Limited"}
{"name": "Dawood Ablahad", "location": "Wollert, VIC", "telephone": "0422 161 469", "business": "Solar trader"}
{"name": "Assem Abou Saada", "location": "Pakenham, VIC", "telephone": "0416 878 283", "business": "Greenwood Solutions Pty Ltd"}
{"name": "Mark Abou-Mehrez", "location": "Old Toongabbie, NSW", "telephone": "0410624114", "business": "Caiman Electrical pty ltd"}
{"name": "Mohammad Abousamra", "location": "Young, NSW", "telephone": "0422 715 511", "business": "Electrotech Cabling Systems Pty Ltd"}
{"name": "Romeo Abrigo", "location": "Burnside Heights, VIC", "telephone": "419153178", "business": "Solar Sunfill"}
{"name": "Osama Abuarga", "location": "Ingleburn, NSW", "telephone": "0451 352 282", "business": "Renewable Industry Solutions Pty Ltd"}
{"name": "Ahmad Abuelezz", "location": "Sydney Olympic Park, NSW", "telephone": "1300 467 652", "business": "Downer"}
{"name": "Raied Abzen", "location": "Croydon South, VIC", "telephone": "421398698", "business": "Power Providers"}
{"name": "Benjamin Derek Accardi", "location": "Merewether, NSW", "telephone": "0423 521 381", "business": "TJA civil"}
{"name": "Matthew Anthony Acciarito", "location": "Mount Waverley, VIC", "telephone": "0432 884 701", "business": "Mass Solar Solutions"}
{"name": "Bernard Achampong", "location": "Katoomba, NSW", "telephone": "0481 200 673", "business": "Champion Electrical Contractors Pty Ltd"}
{"name": "Suresh Kumar Achuthan", "location": "Cranbourne, VIC", "telephone": "0452 176 950", "business": "SRK ELECTRICALS PTY LTD"}
{"name": "Emin Acikyurt", "location": "Hampton Park, VIC", "telephone": "0479 000 096", "business": "Emphase Electrical PTY LTD"}
{"name": "Ziya (Zac) Acikyurt", "location": "Lynbrook, VIC", "telephone": "0422 111 378", "business": "A.c power electrical pty ltd"}
{"name": "Zafer Acikyurt", "location": "Lynbrook, VIC", "telephone": "401494834", "business": "Pro Solar Solutions"}
{"name": "Aaron Mark Ackerman", "location": "Palmwoods, QLD", "telephone": "04 0119 0914", "business": "Wired Right"}
{"name": "Alex Ackerman", "location": "White Gum Valley, WA", "telephone": "0403 902 801", "business": "Solvation Pty Ltd"}
{"name": "Sam John Ackers", "location": "Parramatta park, QLD", "telephone": "0497 098 977", "business": "Sam Ackers Sole Trader"}
{"name": "Bryant Ackers", "location": "Clear Island Waters, QLD", "telephone": "0400 327 252", "business": "Balec Electrical"}
{"name": "Benjamin Ackland", "location": "Reedy Creek, QLD", "telephone": "0402 520 904", "business": "GNG Electrical Pty Ltd"}
{"name": "Paul Acton", "location": "Underwood, QLD", "telephone": "07 3841 0604", "business": "Acton Electrical Services"}
{"name": "Liam Adair", "location": "Forrestfield, WA", "telephone": "0426 684 446", "business": "Belenus pty Ltd"}
{"name": "Aaron Adam", "location": "Stratford, VIC", "telephone": "0488 777 642", "business": "aaron adam Sole Trader"}
{"name": "Ryan Luke Adam", "location": "Buderim, QLD", "telephone": "â€­07 3392 3883â€¬", "business": "Sole Trader"}
{"name": "Ryan Adamczyk", "location": "New Farm, Queensland", "telephone": "07 3299 1277", "business": "Queensland Electrical Pty Ltd"}
{"name": "Shaun Adamczyk-Pinder", "location": "Greenwith, SA", "telephone": "0449 951 663", "business": "PowerHouse Electrical & Data Solutions"}
{"name": "Alex Adams", "location": "North Nowra, NSW", "telephone": "02 4422 1244", "business": "NORTH NOWRA INVESTMENTS PTY LTD TRADING AS SIMMARK"}
{"name": "Paul William Adams", "location": "Quioba, TAS", "telephone": "03 6424 7092", "business": "Fusion Electrical & Communication"}
{"name": "Christopher Adams", "location": "Para Hills, SA", "telephone": "0425 133 087", "business": "Mane Service Group"}
{"name": "Ashley Ray Adams", "location": "Carrara, QLD", "telephone": "0476 161 691", "business": "Nestozen Energy"}
{"name": "Colby Adams", "location": "Maclean, NSW", "telephone": "04 7451 2565", "business": "Solar Switchboard Solutions'"}
{"name": "Leon Michael Adams", "location": "Mermaid beach, Gold Coast, QLD", "telephone": "0423 940 394", "business": "Infinite Electrical Group Pty Ltd"}
{"name": "Damien Adams", "location": "Tolga, QLD", "telephone": "07 4095 5194", "business": "Next Gen Air Conditioning & Electrical"}
{"name": "Khai Adams", "location": "Port Elliot, SA", "telephone": "0478 084 335", "business": "Adams Electrics"}
{"name": "David Adams", "location": "Hallett Cove, SA", "telephone": "0404 473 715", "business": "Safewire Electrical"}
{"name": "Richard Adams", "location": "Ashgrove, QLD", "telephone": "0450 309 341", "business": "Live Green Solar"}
{"name": "Padraich Adams Brown", "location": "Mile end, SA", "telephone": "0475303788", "business": "Clayton Solar and Electrical"}
{"name": "Kane Adamson", "location": "Toowoomba, QLD", "telephone": "07 4634 0882", "business": "ST8 WIDE ELECTRICAL P/L"}
{"name": "Luke Adcock", "location": "Ottoway, SA", "telephone": "0417 595 626", "business": "Adtech Electrical Solutions PTY LTD"}
{"name": "John Adcock", "location": "Townsville, QLD", "telephone": "0488 034 003", "business": "Hire A Sparkie"}
{"name": "Sam Addis", "location": "Trott Park, SA", "telephone": "0422120550", "business": "A.B Electrical Contractors Pty Ltd"}
{"name": "Leon Adelman", "location": "East Bentleigh, VIC", "telephone": "03 95552636", "business": "Nu Value Solar Pty Ltd"}
{"name": "Alan Robert Adler", "location": "Glass House Mountains, QLD", "telephone": "0474 857 302", "business": "Sae Group"}
{"name": "Ricky Adra", "location": "Cheltenham, Victoria", "telephone": "0481 106 263", "business": "Sole Trader"}
{"name": "Mohamad Afyouni", "location": "Granville, NSW", "telephone": "0450 906 144", "business": "PVE ELECTRICAL GROUP"}
{"name": "Shahraiz Afzal", "location": "Bombira, NSW", "telephone": "0401 293 700", "business": "Harvey Norman Commercial Solar"}
{"name": "Shayan Agdar Nejad", "location": "Narre Warren, VIC", "telephone": "0401 875 768", "business": "Power Co Electric Solutions"}
{"name": "Marti Aghaei", "location": "Jamboree Heights, QLD", "telephone": "0426 705 573", "business": "PSC Consulting"}
{"name": "Peter Agnew", "location": "Robe, SA", "telephone": "412612677", "business": "Agnewbros Electrical"}
{"name": "Roberto Aguirre", "location": "ellenbrook, WA", "telephone": "0400009521", "business": "Sole Trader"}
{"name": "Javad Ahamed", "location": "Alexander Heights, WA", "telephone": "0435 448 377", "business": "Delta power electrical services"}
{"name": "Cameron Ahearne", "location": "Emerald, QLD", "telephone": "0400 048 117", "business": "Nicam Electrical"}
{"name": "Muhammad Ahmad", "location": "Balwyn North, VIC", "telephone": "0452 032 236", "business": "Individual"}
{"name": "Ajaz Ahmad", "location": "The Ponds, NSW", "telephone": "0282069614", "business": "Sole traders"}
{"name": "Farhan Ahmad", "location": "St. Albans, VIC", "telephone": "0470682954", "business": "Sole Trader"}
{"name": "Mohammad Reza Ahmadi", "location": "Lynbrook, VIC", "telephone": "0410 269 595", "business": "Influx Electrical Ply Ltd"}
{"name": "Shahnawaz Ahmed", "location": "whalan, NSW", "telephone": "0424 735 417", "business": null}
{"name": "Shahnawaz Ahmed", "location": "Bankstown, NSW", "telephone": "0433 825 955", "business": "NRG Electrical Contractor Pty Ltd"}
{"name": "Tristan Jake Ahrns", "location": "Murray Bridge, SA", "telephone": "0457 689 919", "business": "Ahrns Electrical Pty Ltd"}
{"name": "Andrew John Aiken", "location": "Young, NSW", "telephone": "0428688931", "business": "WSE Electric"}
{"name": "Dain Anthony Ainsworth", "location": "Marangaroo, WA", "telephone": "0404 440 864", "business": "AICA Energy"}
{"name": "Heneli Eric Leon Ainu'u", "location": "Gulliver, QLD", "telephone": "0487 179 376", "business": "Horan and Bird Energy Pty Ltd"}
{"name": "Nathan Aistrope", "location": "seaford rise, SA", "telephone": "0402 274 765", "business": "Sole Trader"}
{"name": "Vincent Aitken", "location": "Malaga, WA", "telephone": "0894441300", "business": "TPE Solar"}
{"name": "Mahmoud Ajaje", "location": "Villawood, NSW", "telephone": "1300249069", "business": "Green Solar Energy"}
{"name": "Fadi Akasheh", "location": "West Wollongong, NSW", "telephone": "0425 440 330", "business": "Bastion Defence Consulting"}
{"name": "Ali Reza Akbari", "location": "Dandenong, VIC", "telephone": "0481 769 771", "business": "Sole Trader"}
{"name": "Shamraiz Akhtar", "location": "Marsden, QLD", "telephone": "+61406537634", "business": "GFE Group"}
{"name": "Charles Akl", "location": "Canberra, ACT", "telephone": "0419 633 517", "business": "Udupi pty ltd ( UPL solar)"}
{"name": "Ossama Akl", "location": "Prestons, NSW", "telephone": "0424 095 585", "business": "Individual"}
{"name": "Ahmad Akl", "location": "prestons, NSW", "telephone": "0450 919 065", "business": "Akl electrical"}
{"name": "Ossman Al Ahmad Nachar", "location": "Villawood, NSW", "telephone": "0424 843 666", "business": "OZZ ELECTRIC"}
{"name": "Hussain Al Dajon", "location": "Merrylands, NSW", "telephone": "0401 528 841", "business": "Individual"}
{"name": "Mohamad Al Dilami", "location": "Liverpool, NSW", "telephone": "0452 256 691", "business": "innovate electrical services"}
{"name": "Nameer Al Khafaf", "location": "South Morang, VIC", "telephone": "0404 915 393", "business": "Portal Engineering"}
{"name": "Rami Al merhabi", "location": "Hoxton Park, NSW", "telephone": "0450 030 355", "business": "Rayzi pty ltd"}
{"name": "Yahiya Al Rekabi", "location": "Prestons, NSW", "telephone": "1300 315 688", "business": "Sole Trader"}
{"name": "Alaa Al-Araji", "location": "Beechboro, WA", "telephone": "0450 126 535", "business": "ARA ELECTRICAL AND AIRCONDITIONING SERVICES PTY LTD"}
{"name": "Suhaib Al-Awaideh", "location": "Bexley, NSW", "telephone": "0432303039", "business": "Siders Pty Ltd"}
{"name": "Ahmed Al-Barzanji", "location": "Chester Hill, NSW", "telephone": "0414 070 747", "business": "Triple-A Electrical & Solar"}
{"name": "Ali Al-kafaji", "location": "Ellenbrook, WA", "telephone": "0478 722 265", "business": "power r us electricial"}
{"name": "Osamah Al-Khafaji", "location": "Leppington, NSW", "telephone": "0430 830 033", "business": "AGL Energy"}
{"name": "Alaa Al-mashkoor", "location": "Guildford West, NSW", "telephone": "04 0125 9993", "business": "Smart eletrical safety"}
{"name": "Belal Al-muthafar", "location": "Punchbowl, NSW", "telephone": "02 87105005", "business": "Ace Electrical & Air Con"}
{"name": "Syed Shah Haseeb Alam", "location": "Mudgee, NSW", "telephone": "0472 742 011", "business": "Sole Trader"}
{"name": "MD Nure Alam", "location": "Gregory Hills, NSW", "telephone": "0410 439 870", "business": "Sole Trader"}
{"name": "Daniel Alame", "location": "Guildford West, NSW", "telephone": "0433 533 230", "business": "Power Up Group Pty Ltd"}
{"name": "Ahmed Alameddine", "location": "Hammondville, NSW", "telephone": "0420 364 040", "business": "Aced Electrical Pty Ltd"}
{"name": "Osamah Alameddine", "location": "Greenacre, NSW", "telephone": "0411 212 437", "business": "United Trades Pty Ltd"}
{"name": "Haider Kamil Gomar Alasdy", "location": "Blacktown, NSW", "telephone": "0499 949 906", "business": "Sunray Electrical And Solar Services"}
{"name": "Norman Alatli", "location": "WINSTON HILLS NSW 2153, NSW", "telephone": "0410 273 039", "business": "Norman Alatli Sole Trader"}
{"name": "Nikola Alavanja", "location": "Pearsall, WA", "telephone": "0416 547 243", "business": "rise energy services"}
{"name": "Farzin Alavi", "location": "Epping, NSW", "telephone": "0421 916 086", "business": null}
{"name": "Dylan Albanese", "location": "Berri, SA", "telephone": "0492 891 575", "business": "YES Group"}
{"name": "William Jordan Freddy Alchin", "location": "Ourimbah, NSW", "telephone": "0450 002 650", "business": "Energie electrical & solar"}
{"name": "Brandon Aldersea", "location": "Viewbank, VIC", "telephone": "0400583043", "business": "Telelec"}
{"name": "Jeremy Alderson", "location": "TWEED HEADS WEST, NSW", "telephone": "0490 777 136", "business": "JA Electrical and Solar Pty Ltd"}
{"name": "Ryan Alderton", "location": "Tamworth, NSW", "telephone": "0411 537 301", "business": "One Flash Electrical"}
{"name": "Blake Scott Alderton Lillis", "location": "Mount Louisa, QLD", "telephone": "0431 525 676", "business": "Horan and bird"}
{"name": "Joshua Craig Aldous", "location": "Nirimba, QLD", "telephone": "0458 858 881", "business": "BWS Electrical"}
{"name": "Luke Nathan Alex", "location": "Symonston, ACT", "telephone": "02 6161 6020", "business": "Free Flow Solar Pty Ltd"}
{"name": "Matthew Alexander", "location": "Como, NSW", "telephone": "-", "business": "M.G.A Electrical"}
{"name": "Jonathan Alexander", "location": "Benalla, VIC", "telephone": "0439 420 602", "business": "Harlow Electrical and Solar"}
{"name": "Cameron Elliot Christopher Algate", "location": "Rocksberg, QLD", "telephone": "0403732732", "business": "Innolec"}
{"name": "Mohammed Alhaddad", "location": "Franklin, ACT", "telephone": "0412 441 386", "business": "Solargizer"}
{"name": "Jihad Alhallab", "location": "Casula, NSW", "telephone": "0456 575 555", "business": "Nexus electrical and security pty ltd"}
{"name": "Mohammed Ali", "location": "Plumpton, NSW", "telephone": "1300 762 807", "business": "A1 Electrical and Solar Pty Ltd"}
{"name": "Basit Ali", "location": "Castle Hill, NSW", "telephone": "0452 655 445", "business": "Smart Energy Answers"}
{"name": "Himayat Imran Ali", "location": "Austral, NSW", "telephone": "0411 317 892", "business": "HIA Electrical & Communication"}
{"name": "Abbas Ali", "location": "cornubia, QLD", "telephone": "0403380189", "business": "SKY SOLAR ENERGY"}
{"name": "Sepehr Ali Dousti", "location": "Quakers Hill, NSW", "telephone": "0435 123 933", "business": "Expandable group pty ltd"}
{"name": "Safeen Ali Ibrahim", "location": "Mount Annan, NSW", "telephone": "0430 056 949", "business": "Mateen Engineering & contractor P/L"}
{"name": "Jeton Alili", "location": "Doveton, VIC", "telephone": "0410 455 619", "business": "JETA ELECTRICAL"}
{"name": "Jeremiah Jordan Alimpulos", "location": "Kallangur, QLD", "telephone": "0477 212 007", "business": "Arnold Electrical & Data Installations"}
{"name": "Jake Dillion Alipate", "location": "Blackwall, NSW", "telephone": "0413 067 967", "business": "Huhila Electrical"}
{"name": "Feras Alkabani", "location": "CASULA (NSW), NSW", "telephone": "0416715609", "business": "Individual"}
{"name": "Christopher Alkemade", "location": "Frederickton, NSW", "telephone": "0406 095 820", "business": "CM & W Alkemade"}
{"name": "Gregory Laurence Allan", "location": "Waldara, VIC", "telephone": "0487950888", "business": "Gallan Electrical"}
{"name": "Brett Allan", "location": "Jubilee Pocket, Queensland", "telephone": "0408 003 827", "business": "Blackrock Australia Pty Ltd"}
{"name": "Craig Allan", "location": "Mansfield, QLD", "telephone": "0400226377", "business": "Sunco Electrical and Air Conditioning"}
{"name": "Lloyd Allanson", "location": "Mooroolbark, VIC", "telephone": "03 9736 9671", "business": "Communicate Electrical Pty Ltd"}
{"name": "Chris Allemand", "location": "Kialla, VIC", "telephone": "0400 028 496", "business": "Allemand Electrical PTY LTD"}
{"name": "Jason Allen", "location": "Murray Bridge, SA", "telephone": "04 7811 3120", "business": "Allen Electrical Services SA"}
{"name": "Benjamin Allen", "location": "Seymour, VIC", "telephone": "0490 414 460", "business": "Sole Trader"}
{"name": "Lyell Allen", "location": "Ballajura, WA", "telephone": "0418 780 007", "business": "AVL Electrical Services"}
{"name": "Michael Gregory Allen", "location": "Adaminaby, NSW", "telephone": "0412 647 866", "business": "Mick Allen Electrical"}
{"name": "Nicholas James Allen", "location": "Tambo, QLD", "telephone": "0418 758 726", "business": "NJA Trading Pty Ltd"}
{"name": "Richard Allen", "location": "Pilliga, NSW", "telephone": "0401 579 365", "business": "Richard Allen"}
{"name": "Samuel Allen", "location": "Williamstown, SA", "telephone": "08 8447 7557", "business": "Australian Rail Track Corporation Limited"}
{"name": "Nathan Allen", "location": "Norwood, TAS", "telephone": "0459 990 532", "business": "AES TAS Pty Ltd"}
{"name": "Rhyse Allen", "location": "Woodend, VIC", "telephone": "03 9336 0016", "business": "Oneteam Energy"}
{"name": "Brian Allen", "location": "Hillcrest, Queensland", "telephone": "0490494178", "business": "Sole Trader"}
{"name": "Ainslie Allen", "location": "Bentleigh, VIC", "telephone": "03 8520 9700", "business": "A.T.S - Australian Technical Services Pty Ltd"}
{"name": "Matthew Allen", "location": "Cranbourne, VIC", "telephone": "0497 203 443", "business": "Allen Air & Electrical"}
{"name": "Matthew Allison", "location": "Wendouree, VIC", "telephone": "04 5653 9778", "business": "Grandview Electrical Solutions PTY LTD"}
{"name": "Samuel Alliston", "location": "HILLARYS, WA", "telephone": "0467166734", "business": "Sole Trader"}
{"name": "Anthony Alliston San Pedro", "location": "Moulden, Northern Territory", "telephone": "0439 454 407", "business": "Ecosparks Solar & Electrical"}
{"name": "Christopher Allman", "location": "Port Kembla, New South Wales", "telephone": "02 4275 2496", "business": "INFINITY ENERGY SOLUTIONS"}
{"name": "Upali Almeida", "location": "Hampton Park, VIC", "telephone": "424020224", "business": "Usc Electrical Group"}
{"name": "Rick Wayne Alomes", "location": "Youngtown, TAS", "telephone": "0439 739 098", "business": "Electrickery Tas"}
{"name": "Sebastian Alonso", "location": "Cheltenham, VIC", "telephone": "08 8280 8133", "business": "Grow Energy Trust"}
{"name": "Jaxon Graham Alp", "location": "Como, WA", "telephone": "0423 296 276", "business": "DMG Solar Technology"}
{"name": "Abdelrhman Alrashed", "location": "Balcatta, WA", "telephone": "04 2996 0628", "business": "Individual"}
{"name": "Osama Issa Ahmad Alsaket", "location": "Guildford, NSW", "telephone": "0405293912", "business": "Individual"}
{"name": "Luke Altmann", "location": "Burnside, WA", "telephone": "0448 012 922", "business": "Fusion Electrical WA"}
{"name": "Ahmed Altobi", "location": "Thomastown, VIC", "telephone": "0469 356 960", "business": "Altobi Electrical Group"}
{"name": "Salesi Aluesi", "location": "Slacks Creek, QLD", "telephone": "0423 778 220", "business": "Gotec2Solar"}
{"name": "Damien Victor Alvaro", "location": "Towradgi, NSW", "telephone": "0499643981", "business": "Lumos Electrical Contracting Pty Ltd"}
{"name": "Johnny Alvaro", "location": "Hectorville, SA", "telephone": "0431 553 361", "business": "AA & F Electrical Pty Ltd"}
{"name": "Wahalathantrige Alwis", "location": "Docklands, VIC", "telephone": "0455 599 088", "business": "AGL Energy"}
{"name": "Sarath Amarasinghe", "location": "Balga, WA", "telephone": "08 6365 5685", "business": "Electro Electrical Air-Conditioning & Refridgeration"}
{"name": "Kael Ambjerg-Pedersen", "location": "Berri, SA", "telephone": "0419 878 383", "business": "YES Group"}
{"name": "Dale Ambrym", "location": "Mount Louisa, QLD", "telephone": "0458 543 781", "business": "Solahart Townsville"}
{"name": "Aylmer Alfredo Ambu", "location": "Asquith, NSW", "telephone": "0460303413", "business": "Individual"}
{"name": "Shaed Amiri", "location": "Cranbourne, Vic", "telephone": "0470 780 782", "business": "Ghan Electrics Pty Ltd"}
{"name": "Farzad Amiri", "location": "Seaton, SA", "telephone": "04 2609 1992", "business": "ENERGY GATE PTY LTD"}
{"name": "Nasim Amiri", "location": "Wantirna South, VIC", "telephone": "0401 423 543", "business": "Sole Trader"}
{"name": "Lee Ampfea", "location": "Gladstone Park, VIC", "telephone": "0401154565", "business": "Ampfea Electrical & data"}
{"name": "Callum Peter Frederick Anderberg", "location": "Tenambit, NSW", "telephone": "0434 348 734", "business": "Elite Power Group"}
{"name": "Henry Anderberg", "location": "Thornton, NSW", "telephone": "N/A", "business": "Elite Power Group"}
{"name": "Lars Anderberg", "location": "Thornton, NSW", "telephone": "0409 440 897", "business": "Elite Power Group"}
{"name": "Caleb Josiah Anderson", "location": "Railton, TAS", "telephone": "0491 738 400", "business": "Wiland electrical"}
{"name": "Daniel Anderson", "location": "Mansfield, VIC", "telephone": "03 5775 1751", "business": "Mansfield Pump Shop & Electrical"}
{"name": "Ryan Anderson", "location": "LANDSBOROUGH, QLD", "telephone": "04 0811 2306", "business": "Rylec Solar and Electrical"}
{"name": "Stephen Anderson", "location": "Caulfield East, VIC", "telephone": "03 9561 6688", "business": "MEC Elecrical Solutions Pty Ltd"}
{"name": "Daniel Carl Anderson", "location": "Cooroy, QLD", "telephone": "0413 634 725", "business": "DCA Electrical"}
{"name": "Michael Anderson", "location": "Caulfield north, VIC", "telephone": "0428559710", "business": "Sole Trader"}
{"name": "Sam Wallace Anderson", "location": "Wendouree, VIC", "telephone": "0438 458 373", "business": "Lamb & Anderson Electrical Pty Ltd"}
{"name": "Ben Anderson", "location": "Mt Luke, QLD", "telephone": "0428 747 741", "business": "BAmps Electrical Pty Ltd"}
{"name": "Samuel Anderson", "location": "narre warren north, VIC", "telephone": "0437686427", "business": "Samwise Electrical"}
{"name": "Darcy Anderson", "location": "Beenleigh, QLD", "telephone": "0406650590", "business": "SPARK MATE PTY LTD"}
{"name": "Ben Anderson", "location": "East Bendigo, VIC", "telephone": "03 4444 2010", "business": "Electric Pro"}
{"name": "Anthony Clyde Anderson", "location": "Hoddles Creek, VIC", "telephone": "0422787415", "business": "Sole Trader"}
{"name": "Clinton Anderson", "location": "Beulah Park, SA", "telephone": "0430 546 417", "business": "Sole Trader"}
{"name": "Bryce Anderton", "location": "Windsor, VIC", "telephone": "0425 746 713", "business": "BAND Electrical"}
{"name": "Zachary Andia", "location": "Redwood Park, SA", "telephone": "04 2312 5499", "business": "Ttoya"}
{"name": "Troy Andreazza", "location": "Lake Wyangan, NSW", "telephone": "0409 242 087", "business": "ANDREAZZA ELECTRICAL PTY LTD"}
{"name": "Scott Geoffrey Andrew", "location": "eynesbury, VIC", "telephone": "0404 296 611", "business": "pro-core electrical pty ltd"}
{"name": "Brett Andrew", "location": "Croydon North, VIC", "telephone": "0434 426 275", "business": "Crowlz Electrical Pty Ltd"}
{"name": "Craig Andrew", "location": "Rosanna, VIC", "telephone": "0419 889 555", "business": "A Grade Solar Solutions Australia"}
{"name": "Timothy Andrew", "location": "Ormeau, QLD", "telephone": "0412 345 678", "business": "Yuma Energy"}
{"name": "Rhys John Andrews", "location": "Toormina, NSW", "telephone": "0403 566 632", "business": "Seabreeze Solar and Electrical"}
{"name": "Guy Andrews", "location": "Coonabarabran, NSW", "telephone": "02 6842 4028", "business": "Guy Andrews Electrical"}
{"name": "Craig Andrews", "location": "Anglesea, VIC", "telephone": "434585058", "business": "Save On Energy"}
{"name": "Mitchell Andrews", "location": "Scarborough, WA", "telephone": "0409 933 141", "business": "Sole Trader"}
{"name": "Narendra Andure", "location": "Harrisdale, WA", "telephone": "0412 534 873", "business": "Vista Electrical Controls Pty Ltd"}
{"name": "Chivorn Ang", "location": "Noble Park, VIC", "telephone": "0448 058 075", "business": "Sky Energy"}
{"name": "Thomas Angel", "location": "Marrickville, New South Wales", "telephone": "02 8379 6778", "business": "TCA Electrical Pty Ltd"}
{"name": "Arin Angel", "location": "Frenchs Forest, NSW", "telephone": "0432 174 999", "business": "Individual"}
{"name": "Rhys Angel", "location": "East Victoria Park, WA", "telephone": "0429805244", "business": "Individual"}
{"name": "Hristijan Angeleski", "location": "Turrella, NSW", "telephone": "0404 144 226", "business": "iControl Electrical and Automation"}
{"name": "Matthew Gino Angeli", "location": "Rostrevor, SA", "telephone": "0434 245 449", "business": "Calvin Contractors"}
{"name": "Stephen Michael Angelides", "location": "Mudgeeraba, QLD", "telephone": "0424 812 900", "business": "SMA Electrical Contracting Pty Ltd"}
{"name": "Clinton James Angell", "location": "DUNCRAIG, WA", "telephone": "0448 880 774", "business": "Direct Electrical Solutions Pty Ltd"}
{"name": "Morgan Angus", "location": "Lamington, WA", "telephone": "0411 328 120", "business": "Morgan Angus Sole Trader"}
{"name": "Nathan Brian Angus", "location": "Saint Albans Park, VIC", "telephone": "0404 045 160", "business": "PSI Electrical"}
{"name": "Euan Angus", "location": "Templestowe Lower, VIC", "telephone": "0455 370 240", "business": "Euan Angus Solar"}
{"name": "Shane Annear", "location": "Broome, WA", "telephone": "0428 372 145", "business": "GenOffGRid"}
{"name": "Ross Annette", "location": "Berwick, VIC", "telephone": "03 9558 3600", "business": "Southern Generators and Electrical"}
{"name": "Troy Jonathon Ansell", "location": "Springfield Lakes, QLD", "telephone": "0466 889 844", "business": "Ansell Elec & Air Pty Ltd"}
{"name": "Byron Edward Anthoney", "location": "Seaham, NSW", "telephone": "0491 611 703", "business": "Individual"}
{"name": "Allan Anthony", "location": "Glen Iris, WA", "telephone": "0412630732", "business": "Al Antz Electrical"}
{"name": "Jesse Anthonysz", "location": "Murray bridge, SA", "telephone": "0438678658", "business": "Solar Wholesalers"}
{"name": "Joseph Antognoni", "location": "Durack, NT", "telephone": "0414415367", "business": "Smart Touch technologies pty ltd"}
{"name": "Leo Apostolou", "location": "Charlestown, New South Wales", "telephone": "0412 270 044", "business": "Alpha Star Electrical Services"}
{"name": "Gavin Appleton", "location": "Moonta, SA", "telephone": "888251454", "business": "AH Electrical & Solar"}
{"name": "Stephen Appleton", "location": "Eurobodalla, NSW", "telephone": "02 4473 5530", "business": "Stephen Appleton"}
{"name": "Callum James Apps", "location": "Rockingham, WA", "telephone": "08 9456 4763", "business": "Koala Solar"}
{"name": "Darren Archer", "location": "Gowrie, ACT", "telephone": "0409 846 698", "business": "Sole Trader"}
{"name": "Anthony Archer", "location": "mornington, TAS", "telephone": "0407 868 329", "business": "solar power tasmania"}
{"name": "Marcus Anthony Arcuri", "location": "Harrington Park, NSW", "telephone": "0459 218 550", "business": "ARCURI ELECTRICAL PTY LIMITED"}
{"name": "Santo Ardagna", "location": "Leichhardt, NSW", "telephone": "0411 464 111", "business": "Enca Technology Pty Ltd"}
{"name": "Mohammad Arefmanesh", "location": "Glenwood, NSW", "telephone": "0451 058 291", "business": "Solar Energy Experts"}
{"name": "Joshua Arends", "location": "Canning Vale, WA", "telephone": "0484664247", "business": "AKM Sunrise Electrical Group Pty Ltd"}
{"name": "Jarrod Arentz", "location": "Swan Hill, VIC", "telephone": "0428 162 709", "business": "Jarrod Arentz Electrical"}
{"name": "John Arfanis", "location": "Alfords Point, NSW", "telephone": "0403 340 850", "business": "JJA Solar & Electrical P/L"}
{"name": "Luke Clarke Argent", "location": "Yugar, QLD", "telephone": "07 3289 6969", "business": "BJ & LC Argent"}
{"name": "Konstantino Argyros", "location": "Camp Hill, QLD", "telephone": "0418 988 747", "business": "Konarg Pty Ltd"}
{"name": "Arshad Hussain Mohamed Abdulla Ariff", "location": "Mickleham, VIC", "telephone": "03 9359 2772", "business": "Maai Electricals"}
{"name": "Idris Ariffin", "location": "CHISHOLM, ACT", "telephone": "422083583", "business": "ACT Electrical & Solar Solutions"}
{"name": "Jeremy Francis Armfield", "location": "East Ballina, NSW", "telephone": "0423 692 203", "business": "JFA Electrical"}
{"name": "Cameron Armstrong", "location": "wakerley, QLD", "telephone": "04 0364 5835", "business": "ultimate electrical & air-conditioning"}
{"name": "Rhett Armstrong", "location": "Highland Park, QLD", "telephone": "0425 840 864", "business": "Leading Sparks Electrical"}
{"name": "Richard Armstrong", "location": "Rye, VIC", "telephone": "03 5985 2230", "business": "JW & RJ Armstrong Electrics"}
{"name": "Scott Armstrong", "location": "Blackall, QLD", "telephone": "0409 897 660", "business": "Scott Armstrong Electrical Pty Ltd"}
{"name": "Ryan Armstrong", "location": "Stockleigh, QLD", "telephone": "0403 139 147", "business": "Revolution Electrical & Solar"}
{"name": "Dale Armstrong", "location": "Salisbury South, SA", "telephone": "0430971131", "business": "Mane Service Group"}
{"name": "Colin Armstrong", "location": "Hervey Bay, QLD", "telephone": "0427 027 472", "business": "Sole Trader"}
{"name": "Aleksandar Arnautovic", "location": "Chifley, NSW", "telephone": "0413 567 847", "business": "Sydney Air & Solar"}
{"name": "Jared Arnol", "location": "Red Cliffs, VIC", "telephone": "0400762454", "business": "N E Thing Electrical"}
{"name": "Timothy Arnold", "location": "Bendigo, VIC", "telephone": "0400 475 473", "business": "TCA Electrical Contractors"}
{"name": "Pawan Arora", "location": "Oran Park, NSW", "telephone": "0430 433 921", "business": "Arora Services Pty Ltd"}
{"name": "Joe Arrouk", "location": "Monash, ACT", "telephone": "0422 137 888", "business": "Blue Rain Electrical"}
{"name": "David Arrowsmith", "location": "Upper Kedron, QLD", "telephone": "+6 1413 3", "business": "Turn U On Electrical Qld Pty Ltd"}
{"name": "Arslaan Arshad", "location": "Kelmscott, WA", "telephone": "0892031212", "business": "Solargain"}
{"name": "Adam Arthur", "location": "Moulamein, NSW", "telephone": "0434 123 333", "business": "RURALEC Electrical Contracting"}
{"name": "John Arvanitakis", "location": "Ruse, NSW", "telephone": "0481703432", "business": "Proteolec Electrical"}
{"name": "Phillip Ary", "location": "Moorabbin, VIC", "telephone": "0430 811 087", "business": "Sole Trader"}
{"name": "Jayden Ash", "location": "Clayfield, QLD", "telephone": "04 1508 0797", "business": "Daytime solar"}
{"name": "Gus Ashby", "location": "Tumut, NSW", "telephone": "0431 153 669", "business": "GEA Electrical"}
{"name": "Glenn Ashcroft", "location": "Junortoun, VIC", "telephone": "421282727", "business": "Ashcroft Electrical"}
{"name": "Ali Asheibi", "location": "Wentworthville, NSW", "telephone": "0451 622 684", "business": "Sole Trader"}
{"name": "Patrick Joseph Ashton", "location": "Gaven, QLD", "telephone": "04 3179 6117", "business": "PJA Electrical"}
{"name": "Brett Ashton", "location": "Yeppoon, QLD", "telephone": "408232306", "business": "CQ Solar & Electrical"}
{"name": "Ricky Ashton", "location": "bowen, QLD", "telephone": "0401 888 042", "business": "Rick Ashton Electrical Pty Ltd"}
{"name": "Glen Ashton", "location": "Tweed Heads South, NSW", "telephone": "404112434", "business": "Sae Group"}
{"name": "Jake Ashton-Webster", "location": "Bunbury, WA", "telephone": "08 9791 1117", "business": "SunWise Energy"}
{"name": "Waleed Asim", "location": "North Strathfield, NSW", "telephone": "0481381444", "business": "Zero 4 Energy"}
{"name": "Sargon Askaro", "location": "Silverdale, NSW", "telephone": "0421 836 935", "business": "Motion Electrical"}
{"name": "Jayden Askew", "location": "Warrnambool, VIC", "telephone": "03 5564 3000", "business": "Leahy's Electrical Services"}
{"name": "Marcus Askew", "location": "Warrnambool, VIC", "telephone": "03 5564 3000", "business": "Leahys Electrical Services"}
{"name": "Gary Askew", "location": "Warrnambool, VIC", "telephone": "03 5564 3000", "business": "Leahys Electrical Contracting"}
{"name": "Daniel Askey-Doran", "location": "Malanda, QLD", "telephone": "0433158941", "business": "Smart elec"}
{"name": "Alexej Asselborn", "location": "Hornsby, NSW", "telephone": "02 8316 6121", "business": "Genelec Power Solutions"}
{"name": "Ryan Assigal", "location": "Elwood, VIC", "telephone": "0439860744", "business": "Sole Trader"}
{"name": "Christopher John Gerard Astill", "location": "Picnic Point, NSW", "telephone": "0423 923 691", "business": "Partners in Energy Pty Ltd"}
{"name": "Michael Astill", "location": "Kingaroy, QLD", "telephone": "07 4162 7970", "business": "Astill's Electrical Service"}
{"name": "Jeremy Nicholas Aston", "location": "Mount Gambier, SA", "telephone": "887250540", "business": "Nick Aston Electrical Contractor"}
{"name": "Hamid Reza Atashkahi", "location": "Altona, VIC", "telephone": "0470 091 883", "business": "F.B.I ELECTRICAL TEAM"}
{"name": "Ahmad Atbein", "location": "Hallam, VIC", "telephone": "+61403420589", "business": "Weltech Electrical Services"}
{"name": "John Athanasopoulos", "location": "Loxton, SA", "telephone": "0435959402", "business": "YES Group SA"}
{"name": "Rohana Athukorala", "location": "Clyde North, VIC", "telephone": "+6 1498 0", "business": "Sole Trade"}
{"name": "Jarrod Atkinson", "location": "Huntingdale, WA", "telephone": "0498 323 378", "business": "West Australian Alternative Energy"}
{"name": "Kane Ricky Atkinson", "location": "Mooroopna, VIC", "telephone": "0417 302 576", "business": "KR Atkinson Electrical"}
{"name": "Paul Atkinson", "location": "Ferryden Park, SA", "telephone": "0424 480 160", "business": "Akko Automation & Electrical Pty Ltd"}
{"name": "Russell Atkinson", "location": "Roebourne, WA", "telephone": "0418 838 255", "business": "ATKTEC Pty Ltd"}
{"name": "Simon Atkinson", "location": "Nickol, WA", "telephone": "0437 889 711", "business": "hybrid energy solutions"}
{"name": "James Atkinson", "location": "Prospect, SA", "telephone": "08 8344 7298", "business": "Natural Technology Systems"}
{"name": "Nicholas Atkinson", "location": "Nundah, QLD", "telephone": "0422935799", "business": "MC Electrical"}
{"name": "Ramesh Atluri", "location": "Sydney Olympic Park, NSW", "telephone": "13 0076 9371", "business": "Power Ideas Pty Ltd"}
{"name": "Andrew James Atmore", "location": "Harrington Park, NSW", "telephone": "0422307027", "business": "AJ Atmore Electrical Pty Ltd"}
{"name": "Hadi Atta", "location": "Melbourne, Victoria", "telephone": "0469 215 534", "business": "Oz Grid Electrics Pty Ltd"}
{"name": "Timothy Attard", "location": "Meadowbank, NSW", "telephone": "0405 500 968", "business": "CSR Building Products"}
{"name": "Esmail Attia", "location": "Punchbowl, NSW", "telephone": "0430 041 693", "business": "Attia Enterprise  PL"}
{"name": "Michael Atwell", "location": "Coolangatta, QLD", "telephone": "0403722953", "business": "Sole Trader"}
{"name": "Anthony Aucello", "location": "Capel Sound, VIC", "telephone": "0448 053 269", "business": "Solar Plus Electrical"}
{"name": "George Auchterlonie", "location": "Old Beach, TAS", "telephone": "0439 750 418", "business": "Renewable Energy Solutions Tasmania P/L"}
{"name": "Alroy Augustus", "location": "Gowanbrae, VIC", "telephone": "394383919", "business": "Online Air and Solar"}
{"name": "Jasvir Singh Aulakh", "location": "Craigieburn, VIC", "telephone": "0405 401 385", "business": "Jassi Solar"}
{"name": "Jarryd Aurisch", "location": "Ocean Grove, VIC", "telephone": "488106331", "business": "Lucky Bay Electrical"}
{"name": "Ben Jake Austin", "location": "Hudson, QLD", "telephone": "07 4061 1930", "business": "P. W. Austin Electrical Pty Ltd"}
{"name": "Stephen Austin", "location": "Morisset, NSW", "telephone": "0402652478", "business": "Sole Trader"}
{"name": "Dwight Avery", "location": "Dalmeny, NSW", "telephone": "02 6493 6580", "business": "Shane Black Energy Services"}
{"name": "Brett Avery", "location": "Mt Isa, QLD", "telephone": "0423 918 711", "business": "Brett Avery Pty Ltd"}
{"name": "Mark Avery", "location": "Berowra Heights, NSW", "telephone": "0405 037 903", "business": "Solar Installation Services"}
{"name": "Christopher Avery", "location": "Glenbrook, NSW", "telephone": "0413 686 941", "business": "Avery Electrical Solutions"}
{"name": "Paul Avion", "location": "Oaklands Park, SA", "telephone": "08 8387 5359", "business": "Switched-On Electrical"}
{"name": "Gigino Avolio", "location": "Mareeba, QLD", "telephone": "0408 701 445", "business": "Tableland Airconditioning and Solar P/L"}
{"name": "Peter Avolio", "location": "Mareeba, QLD", "telephone": "0419 654 935", "business": "Tableland Solar"}
{"name": "Joseph Awad", "location": "Granville, NSW", "telephone": "0416 722 400", "business": "Danco electrical"}
{"name": "Habib Awada", "location": "KINGSGROVE, NSW", "telephone": "04 1673 8998", "business": "SYDNEY ELECTRICIANS"}
{"name": "Jamal Awar", "location": "Vista, SA", "telephone": "0451 115 323", "business": "JA Solar and Batteries"}
{"name": "Jamil Awar", "location": "Windsor Gardens, SA", "telephone": "0402 639 549", "business": "JA Solar and Batteries"}
{"name": "Micheal Awwad", "location": "Fraser Rise, VIC", "telephone": "0421 644 475", "business": "Sole Trader"}
{"name": "Sam Axford", "location": "Richmond Hill, QLD", "telephone": "04 7504 6018", "business": "Axford & co"}
{"name": "Joshua Axford", "location": "Old Guildford, NSW", "telephone": "0425 214 986", "business": "Axford Solar"}
{"name": "Andrew Ayles", "location": "Cherry Gardens, SA", "telephone": "0418 804 550", "business": "Andrew A Ayles & E Ayles"}
{"name": "Matthew Timothy Ayton", "location": "Parkwood, QLD", "telephone": "0412 506 075", "business": "Individual"}
{"name": "Sanad Ayyoub", "location": "Greenfield Park, NSW", "telephone": "0412 006 693", "business": "Sole Trader"}
{"name": "Farid Azadikhales", "location": "BLACKBURN South, Victoria", "telephone": "04 2397 9990", "business": "PRO ELECTRIC GROUP"}
{"name": "Iman Azari", "location": "South Morang, VIC", "telephone": "0416 369 316", "business": "Theta Electrics"}
{"name": "Waleed Azazy", "location": "Kelvin Grove, QLD", "telephone": "0410 959 447", "business": "Individual"}
{"name": "Arthur Aziz", "location": null, "telephone": "", "business": "ARTHUR AZIZ Sole Trader"}
{"name": "Aqib Aziz", "location": "Auburn, NSW", "telephone": "0416 012 014", "business": "Smart Energy Answers"}
{"name": "Milad Aziz", "location": "Fairfield West, NSW", "telephone": "0432 069 082", "business": "Ashour Electrical Pty Ltd"}
{"name": "Hakim Azizi", "location": "Cranbourne East, VIC", "telephone": "0432 180 473", "business": "Individual"}
{"name": "Michael Azzi", "location": "Punchbowl, NSW", "telephone": "0415380234", "business": "High Velocity Electrical Pty Ltd"}
{"name": "Mitchell Azzopardi", "location": "Tamborine Mountain, QLD", "telephone": "0435 959 727", "business": "MLA Electrical Pty Ltd"}
{"name": "Hardeep Baath", "location": "Hillside, VIC", "telephone": "0481 000 772", "business": "CHECK SAFE ELECTRICAL"}
{"name": "Abbas Babaee", "location": "CRANBOURNE, VIC", "telephone": "0407 399 442", "business": "ABB Electrical Pty Ltd"}
{"name": "Seyar Babak", "location": "Narre Warren North, VIC", "telephone": "0451416626", "business": "My Elec Group"}
{"name": "Alen Baca", "location": "West Lakes, SA", "telephone": "0431 661 677", "business": "Sole Trader"}
{"name": "Stephen Bacchia", "location": "Royal Park, SA", "telephone": "08 8300 3500", "business": "Centralian Controls"}
{"name": "Florian Bachler", "location": "Winston Hills, NSW", "telephone": "0400 009 695", "business": "B ELECTRICAL AUSTRALIA Pty Ltd"}
{"name": "Ryan Bachos", "location": "Manjimup, WA", "telephone": "0429723336", "business": "BACHOS ELECTRICS"}
{"name": "Zachary John Bacon", "location": "Coolangatta, QLD", "telephone": "0403131103", "business": "Individual"}
{"name": "Warren Bacon", "location": "Yeppoon, QLD", "telephone": "0418 792 880", "business": "Waztec Services / Capricorn Solar"}
{"name": "Reece Badans", "location": "Bega, NSW", "telephone": "0400373866", "business": "Greg Eastman Electrical"}
{"name": "Jimmy Badcock", "location": "Tugun, QLD", "telephone": "0499776527", "business": "Queensland Commercial Solar"}
{"name": "Michael Badenhorst", "location": "Pinjarra, WA", "telephone": "08 9531 3576", "business": "Murray District Electrical"}
{"name": "Simon Baggio", "location": "New Farm, QLD", "telephone": "0733581541", "business": "Aus Air Electrical Pty ltd"}
{"name": "Mohammad Baghdadi", "location": "Greenacre, NSW", "telephone": "0433940141", "business": "MNB ELECTRICAL"}
{"name": "Zack Baguley", "location": "Pakenham, VIC", "telephone": "0466565680", "business": "Sole Trader"}
{"name": "Imron Bahsin", "location": "Oakhurst, NSW", "telephone": "0427 272 524", "business": "Elite Electrical and Communications"}
{"name": "Wei Bai", "location": "Seven Hills, NSW", "telephone": "0403 531 686", "business": "Sunny Loop Pty Ltd"}
{"name": "David Bailey", "location": "Castle Hill, NSW", "telephone": "0434 379 967", "business": "Smart Energy Answers"}
{"name": "Cameron Bailey", "location": "Mudgee, NSW", "telephone": "0432 777 646", "business": "Sole Trader"}
{"name": "Graeme Bailey", "location": "Angaston, SA", "telephone": "0410 329 668", "business": "CTI Solar & Electrical"}
{"name": "Scott Bailey", "location": "Balan, VIC", "telephone": "0427 306 241", "business": "Bailey Technologies"}
{"name": "Gavin Bailey", "location": "Canning Vale, WA", "telephone": "0497 257 142", "business": "StarDelta Electrical Pty Ltd"}
{"name": "Keith Philip Bailey", "location": "Monak, NSW", "telephone": "0419 356 851", "business": "Mallee Energy Solutions"}
{"name": "Thomas Bailey", "location": "Cardross, VIC", "telephone": "438575478", "business": "Baileys Electrical and Automation"}
{"name": "Trent Bailey", "location": "Coorabell, NSW", "telephone": "0437 154 644", "business": "Trent Bailey Electrical and Solar"}
{"name": "Jesse Bain", "location": "Woodvale, WA", "telephone": "0421 450 428", "business": "Austenergy"}
{"name": "Baljit Bains", "location": "Gisborne South, VIC", "telephone": "401963163", "business": "Jd Bains Electricals"}
{"name": "Mitch James Bairstow", "location": "Taranganba, Queensland", "telephone": "0400 651 313", "business": "Sole Trader"}
{"name": "Amit Bajaj", "location": "Gungahlin, ACT", "telephone": "1300406182", "business": "Clean Sun Energy"}
{"name": "Milos Bajic", "location": "Morley, WA", "telephone": "0428 676 169", "business": "SMB ELECTRICAL AND RENOVATION"}
{"name": "Joshua Baker", "location": "Surfers Paradise, QLD", "telephone": "0405 394 175", "business": "Vested energy"}
{"name": "Samuel Baker", "location": "Glengarry, Victoria", "telephone": "0419 332 068", "business": "Ivyndi Energy PTY LTD"}
{"name": "Alistair Hugh Baker", "location": "Penrice, SA", "telephone": "0458 517 884", "business": "BKR Electrical"}
{"name": "Mark James Baker", "location": "Bayswater, VIC", "telephone": "03 9131 8677", "business": "Solahart Eastern Ranges"}
{"name": "Nathan Baker", "location": "Glen Waverley, VIC", "telephone": "0478755961", "business": "Elecore Pty Ltd"}
{"name": "Michael Roy Baker", "location": "Sandgate, QLD", "telephone": "0477003116", "business": "M. R Baker"}
{"name": "Glyn Baker", "location": "Traralgon, VIC", "telephone": "0424 436 759", "business": "Dorky"}
{"name": "Tully Baker", "location": "Oceanview, QLD", "telephone": "07 497258132", "business": "Bolden Electrical Pty Ltd"}
{"name": "Graham Baker", "location": "Everton Park, QLD", "telephone": "0412624637", "business": "Grounded Electrical Pty Ltd"}
{"name": "Mark Baker", "location": "Grahamstown, NSW", "telephone": "0409 936 708", "business": "Sole Trader"}
{"name": "Tim Baker", "location": "Hannam Vale, NSW", "telephone": "0400 202 022", "business": "APEX SOLAR & ELECTRICAL PTY LTD"}
{"name": "Gary Baker", "location": "Numurkah, VIC", "telephone": "0428 579 083", "business": "Baker Renewable Energy"}
{"name": "Peter Baker", "location": "Baranduda, VIC", "telephone": "0418 602 932", "business": "Eco Power and Lighting"}
{"name": "Ibrahem Bakesmati", "location": "East Cannington, WA", "telephone": "04 3791 3360", "business": "Switched On Electrical & Communication PTY LTD"}
{"name": "Mohammed Bakesmati", "location": "Mount Druitt, NSW", "telephone": "0458511460", "business": "Switched-On Electrical"}
{"name": "Proud Bako", "location": "Denham Court, NSW", "telephone": "04 7870 0570", "business": "PROUD BAKO ELECTRICAL SERVICES PTY LTD"}
{"name": "Phillip Balaban", "location": "Coomera, QLD", "telephone": "0401 198 971", "business": "Edisun Group"}
{"name": "Brian Balanay", "location": "Mulambin, QLD", "telephone": "0430527910", "business": "Balanay Electrical Pty Ltd"}
{"name": "Jared Luke Balchin", "location": "Suffolk Park, NSW", "telephone": "0433 443 307", "business": "NAE & Energy Co Pty Ltd"}
{"name": "Brett Balding", "location": "Cornubia, QLD", "telephone": "07 32877200", "business": "Sparkrite Electrical"}
{"name": "Joshua Michael Bale", "location": "Mareeba, QLD", "telephone": "0474 706 485", "business": "FNQ SOLAR SOLUTIONS"}
{"name": "Christopher Balen", "location": "Zetland, NSW", "telephone": "0413 771 997", "business": "Sole Trader"}
{"name": "Kevin Balen", "location": "Northbridge, NSW", "telephone": "1300 653 556", "business": "Pica Electrical"}
{"name": "Daniel Ball", "location": "GLEN WAVERLEY, VIC", "telephone": "04 2327 5405", "business": "Cherry Energy Solutions"}
{"name": "Warrick Ball", "location": "Peakhurst, NSW", "telephone": "95 337 444", "business": "Australia Wide Solar"}
{"name": "Timothy Ball", "location": "Strathpine, QLD", "telephone": "0402 502 041", "business": "Sole Trader"}
{"name": "Jesse Balmer", "location": "Eagelby, QLD", "telephone": "04 3228 2543", "business": "Taylor Energy Pty Ltd"}
{"name": "Nathan Balshaw", "location": "Currumbin Valley, QLD", "telephone": "0410 557 324", "business": "Balshaw Electrical"}
{"name": "Ramil Baluyot", "location": "Werribee, VIC", "telephone": "0414 687 351", "business": "Powergrid Electrical Services Pty Ltd"}
{"name": "Ross Bament", "location": "DOREEN, VIC", "telephone": "0407 604 209", "business": "Capacity Electrical"}
{"name": "Shanuka Bandara", "location": "Noble Park, VIC", "telephone": "0452 560 134", "business": "RACV Solar"}
{"name": "Chaminda Bandara", "location": "Broadmeadows, Victoria", "telephone": "0400 140 183", "business": "SSS FIBRE OPTIC PTY LTD"}
{"name": "Chethan Bandi", "location": "Chermside, QLD", "telephone": "0470601570", "business": "Redflow International"}
{"name": "Michael Bandiera", "location": "Tranmere, SA", "telephone": "0438 421 817", "business": "Protec Electrical Contractors"}
{"name": "Tirthankar Banerjee", "location": "Bentley, WA", "telephone": "08 6154 6945", "business": "Oztron Energy Pty Ltd"}
{"name": "Binayak Banerjee", "location": "Bentley, WA", "telephone": "08 6154 6945", "business": "Oztron Energy Pty Ltd"}
{"name": "Dattatraya Bangar", "location": "The Ponds, NSW", "telephone": "04 0140 5808", "business": "SRB Electrical Contractor"}
{"name": "Timothy Nicholas Banhidi", "location": "Ferntree Gully, VIC", "telephone": "0433 365 433", "business": "Wired Solutions"}
{"name": "Liviu Sebastian Banica", "location": "Leumeah, NSW", "telephone": "0450 594 200", "business": "AAA SOLAR PTY LTD"}
{"name": "Balu Laxman Bankar", "location": "Leppington, NSW", "telephone": "0403 587 571", "business": "Individual"}
{"name": "Joshua Banks", "location": "Mornington, TAS", "telephone": "0362447757", "business": "Banks Electrical & Solar"}
{"name": "Sean Banson", "location": "Wy Yung, VIC", "telephone": "0428560591", "business": "Carl Spink Electrical"}
{"name": "Shannon Baptist", "location": "MENA CREEK, QLD", "telephone": "0488 586 036", "business": "Baps electrics"}
{"name": "Mehdi Baqiri", "location": "Graceville, QLD", "telephone": "0411983117", "business": "All Ideal Solutions Pty Ltd"}
{"name": "Ehsan Baqiri", "location": "Smithfield, NSW", "telephone": "0400 062 208", "business": "Superior building services & solution pty ltd"}
{"name": "Nazih Barbar", "location": "Condell park, NSW", "telephone": "0416 505 000", "business": "AUS-TECH ELECTRICAL Pty Ltd"}
{"name": "Daniel Barbaro", "location": "Googong, NSW", "telephone": "0421 002 017", "business": "CBR Electrical Contractors PTY LTD"}
{"name": "Adrian Barber", "location": "Hawthorn East, VIC", "telephone": "0433 374 699", "business": "Australian Solar Installs Pty Ltd"}
{"name": "Zachary Raymond Barbero", "location": "Ripley, QLD", "telephone": "0432 739 427", "business": "Warbook pty ltd"}
{"name": "Roger Barbieri", "location": "Bulleen, VIC", "telephone": "0414 801 137", "business": "Perfect Energy Pty Ltd"}
{"name": "Matthew Barca", "location": "Cobram, VIC", "telephone": "0428 565 747", "business": "Bec Group Pty Ltd"}
{"name": "Heath Barclay", "location": "Mooloolaba, QLD", "telephone": "0434274832", "business": "HMB Electrical"}
{"name": "Simon Barclay", "location": "Busselton, WA", "telephone": "08 9754 8920", "business": "West Australian Alternative Energy"}
{"name": "Gimsy Bardsley", "location": "Goodna, QLD", "telephone": "0487 896 776", "business": "Western Buzz Pty Ltd"}
{"name": "John Bardwell", "location": "Bayview, NSW", "telephone": "0421 144 478", "business": "Ecofreak Energy Solutions"}
{"name": "Dalibor Barisic", "location": "Angle Park, SA", "telephone": "0422 340 763", "business": "Bar Electrical Pty Ltd"}
{"name": "Lachie Barker", "location": "Naracoorte, SA", "telephone": "0439 208 808", "business": "Sinclair Electrical Solutions"}
{"name": "Geoffrey Barker", "location": "Bushland Beach, QLD", "telephone": "0437 913 100", "business": "Lonestar Power pty ltd"}
{"name": "Paul Barker", "location": "Mudgeeraba, QLD", "telephone": "07 5559 1089", "business": "Phoenix Electrical Contractors"}
{"name": "Brian Barlin", "location": "Burleigh Heads, QLD", "telephone": "07 5535 5511", "business": "Integrated Power House Pty Ltd"}
{"name": "Ryan William Barlow", "location": "grose vale, NSW", "telephone": "0437 013 062", "business": "Transcom Services"}
{"name": "Nigel Barlow", "location": "Para Hills West, SA", "telephone": "0413 705277", "business": "NPB ELECTRICAL"}
{"name": "Marcus Barlow", "location": "Arana Hills, QLD", "telephone": "0431 070 868", "business": "Wire Wise Electrical"}
{"name": "Austin Barlow", "location": "Mulgrave, VIC", "telephone": "0422 282 391", "business": "ABCleanEnergySolutions"}
{"name": "Vipul Barmallu", "location": "Schofields, NSW", "telephone": "0401 953 612", "business": "Sole Trader"}
{"name": "Llewellyn Barnard", "location": "Ballarat Central, VIC", "telephone": "0487321552", "business": "Ballarat Solar and Electrical"}
{"name": "Marius Barnard", "location": "Manoora, QLD", "telephone": "432292247", "business": "M Barnard Electrical"}
{"name": "Jamie Barnes", "location": "WA", "telephone": "0417 849 506", "business": "Triodia"}
{"name": "Nathan Barnes", "location": "New Beith, QLD", "telephone": "04 2023 2602", "business": "Qvolt"}
{"name": "Max Sebastian Barnes", "location": "Goolwa Beach, SA", "telephone": "0429 982 309", "business": "Max Barnes Electrical"}
{"name": "Alexander Barnes", "location": "Minyirr, WA", "telephone": "0419 977 107", "business": "Kimberley Enviro Solutions"}
{"name": "Joe Barnes", "location": "Morley, WA", "telephone": "0488 021 448", "business": "Active Electrical WA"}
{"name": "Tobias Barnes", "location": "Wulagi, NT", "telephone": "0450635797", "business": "Delta Electrics"}
{"name": "Andrew Barnett", "location": "ERINA, NSW", "telephone": "0405821709", "business": "FCEM PTY LTD"}
{"name": "Paul Barnett", "location": "Balgowlah, NSW", "telephone": "0450 973 061", "business": "Sole Trader"}
{"name": "Brian John Barnett", "location": "Andrews Farm, SA", "telephone": "0429 909 025", "business": "Sharpe Group"}
{"name": "Luke Barowski", "location": "Warranwood, VIC", "telephone": "0421 569 055", "business": "Sole Trader"}
{"name": "Patrick Barr", "location": "Melbourne, VIC", "telephone": "0412 646 092", "business": "Green Energy Technologies"}
{"name": "Jacob Barr", "location": "Stieglitz, TAS", "telephone": "0499 670 099", "business": "Bay of Fires Electrical"}
{"name": "Matthew Barratt", "location": "Broken Hill, NSW", "telephone": "08 8088 7933", "business": "Mathew Barratt Electrical"}
{"name": "Liam Barrett", "location": "Clarkson, WA", "telephone": "0481 188 922", "business": "Bluepoint Electrical"}
{"name": "James Nicholas Barrett", "location": "Riverhills, QLD", "telephone": "0432 510 888", "business": "Clean Air & Electrical"}
{"name": "Paul Barrett", "location": "Boat Harbour, New South Wales", "telephone": "0468621809", "business": "PJB Electrical Pty Ltd"}
{"name": "Peter Barrett-Lennard", "location": "Osborne Park, WA", "telephone": "08 9244 2668", "business": "WA Solar Supplies (Alternative Energy Products)"}
{"name": "Jay Jordan Barron", "location": "Sydney, NSW", "telephone": "0433862811", "business": "Jay Barron Sole Trader"}
{"name": "Kristian Barron", "location": "Heathcote Junction, VIC", "telephone": "0474 227 245", "business": "Westwire"}
{"name": "Myles Mark Barry", "location": "Morphett Vale, SA", "telephone": "0427 974 322", "business": "Solar Power Direct"}
{"name": "Luke Barry", "location": "Kilmore, VIC", "telephone": "0405 443 425", "business": "LAB Electrics"}
{"name": "Adam Barry", "location": "Ringwood, VIC", "telephone": "0417 368 340", "business": "Completely Wired"}
{"name": "Sean Barry", "location": "BURLEIGH HEADS, QLD", "telephone": "412904557", "business": "Onepower"}
{"name": "Aaron Barry", "location": "Armadale, WA", "telephone": "0435713893", "business": "Aaron Barry"}
{"name": "Paul Barson", "location": "Seaford Rise, SA", "telephone": "0438814923", "business": "Barson Electrical"}
{"name": "Craig Bartel", "location": "Fyshwick, ACT", "telephone": "02 6254 1473", "business": "Bartel Electrical and Home Maintenance"}
{"name": "Bradley Bartlett", "location": "Newry, VIC", "telephone": "0429 220 828", "business": "Bartlett Electrical"}
{"name": "Bryce Bartlett", "location": "St Clair, NSW", "telephone": "1800 202 930", "business": "Penrith Solar Centre"}
{"name": "Matthew Bartlett", "location": "Richmond, VIC", "telephone": "0488 988 767", "business": "FG Advisory"}
{"name": "Hayden Bartlett", "location": "Lutwyche, QLD", "telephone": "04 3861 9270", "business": "Gardel Electrical"}
{"name": "John Bartlett", "location": "Kingaroy, QLD", "telephone": "07 4162 7970", "business": "Astill's Electrical Service"}
{"name": "Marcin Bartlomiej", "location": "Belair, SA", "telephone": "0408596639", "business": "Enerven Energy Infrastructure Pty Ltd"}
{"name": "Daniel Bartolo", "location": "Cranebrook, NSW", "telephone": "0414 195 415", "business": "Advanced Electrical Sydney"}
{"name": "Ryan David Barton", "location": "Harcourt, VIC", "telephone": "0468426005", "business": "Sunlight Solar and Electrical"}
{"name": "Jack Bartrup", "location": "Eglinton, WA", "telephone": "0435 850 940", "business": "Perth Solar Force"}
{"name": "Thomas Bartved Forward", "location": "Dianella, WA", "telephone": "1300168138", "business": "Solar naturally"}
{"name": "Brendan John Barwick", "location": "Parkwood, QLD", "telephone": "0417 776 083", "business": "BJ Barwick Electrical Pty Ltd"}
{"name": "Corey Basaraba", "location": "Moonee Ponds, VIC", "telephone": "0422 080 766", "business": "Lightyear Solar and Electrical"}
{"name": "Blake Basham", "location": "COOTAMUNDRA, New South Wales", "telephone": "0408 414 031", "business": "Todd Basham Electrical"}
{"name": "Todd Basham", "location": "Cootamundra, NSW", "telephone": "0429 328 794", "business": "Todd Basham Electrical"}
{"name": "Naqiuddin Basharudin", "location": "Bayswater, VIC", "telephone": "03 9720 2709", "business": "720 Electrical Pty Ltd"}
{"name": "Adam Baskerville", "location": "Waggrakine, WA", "telephone": "0447401007", "business": "Midwest Solar Power"}
{"name": "Gyanendra Basnet", "location": "Narre Warren South, VIC", "telephone": "425783020", "business": "Everest Electrical"}
{"name": "Christopher Bass", "location": "Bronte, NSW", "telephone": "0432 596 955", "business": "Trill Electrical pty ltd"}
{"name": "Osman Bassal", "location": "Busby, NSW", "telephone": "0476 660 666", "business": "Electrical express PTY limited"}
{"name": "Hussein Bassal", "location": "Ingleburn, NSW", "telephone": "0415 309 674", "business": "Beyond Electrical Australia"}
{"name": "Imad Bassel", "location": "Merrylands, NSW", "telephone": "04 7666 0666", "business": "Electrical espress Pty limited"}
{"name": "Daniel Bassett-Scarfe", "location": "Busselton, WA", "telephone": "08 9791 1117", "business": "SunWise Energy"}
{"name": "Robert Bassingthwaighte", "location": "Mount Kilcoy, QLD", "telephone": "0428 549 731", "business": "Bass Contracting Solutions"}
{"name": "Jacob Basten", "location": "Douglas, QLD", "telephone": "0417 773 536", "business": "green energy technologies"}
{"name": "Hugh James Batchelor", "location": "Glenelg East, SA", "telephone": "0449 091 886", "business": "Wescombe Electrical"}
{"name": "Darrin Batchelor", "location": "Tallebudgera Valley, QLD", "telephone": "0433 034 732", "business": "Batch Electrical"}
{"name": "Adam Bate", "location": "Coconut Grove, NT", "telephone": "0499 003 158", "business": "Ecotech Electrical"}
{"name": "James Bateman", "location": "Akaroa, TAS", "telephone": "0435781150", "business": "JK Electrical and Solar"}
{"name": "Shannon Albert Robert Bates", "location": "Tenterfield, NSW", "telephone": "0429 792 675", "business": "Sole Trader"}
{"name": "Colin Ross Bates", "location": "Worongary, Queensland", "telephone": "0427 705 374", "business": "ELK Electrical"}
{"name": "Mark Bates", "location": "Mount Torrens, SA", "telephone": "0400 257 461", "business": "Hybrid Power"}
{"name": "Aldin Bates", "location": "PADBURY, WA 6025, WA", "telephone": "+61412631360", "business": "Sole Trader"}
{"name": "Corey Bates", "location": "Olinda, VIC", "telephone": "0425 858 628", "business": "Salt Water Electrical"}
{"name": "Andrew Batge", "location": "Old Beach, Tasmania", "telephone": "03 6274 1111", "business": "Southern Air"}
{"name": "Grant Batson", "location": "Cranbourne West, VIC", "telephone": "0401 323 346", "business": "Oasis Electrical"}
{"name": "Nicholas Battista", "location": "SHEIDOW PARK, SA", "telephone": "0423 750 671", "business": "A.B Electrical Contractors Pty Ltd"}
{"name": "James Bau", "location": "Mount Waverley, VIC", "telephone": "0421 548 808", "business": "NXTGEN Group"}
{"name": "Adam Bau", "location": "Mount Waverley, VIC", "telephone": "0403 223 323", "business": "Chief Electricians"}
{"name": "Graeme Bauer", "location": "Blackstone, QLD", "telephone": "0408710809", "business": "Action Ipswich Electrical"}
{"name": "Scott Baumber", "location": "SEVENTEEN MILE ROCKS, QLD", "telephone": "0478 889 504", "business": "Daytime solar and electrical pty ltd"}
{"name": "Sami Bavi", "location": "Potts Hill, NSW", "telephone": "04 6955 3271", "business": "5 Points Electric"}
{"name": "Kyran David Baxter", "location": "Clontarf, Queensland", "telephone": "0407 092 879", "business": "BB GROUP (QLD)PTY LTD"}
{"name": "Philip Gordon Baxter", "location": "white beach, TAS", "telephone": "0477 036 586", "business": "Smartgrid"}
{"name": "Patrick Baxter", "location": "Hamilton, NSW", "telephone": "0447 470 259", "business": "One Power T/A Elite Installations"}
{"name": "Kane Baxter-Smith", "location": "Werribee, VIC", "telephone": "0439 817 129", "business": "Swift Solar Repairs"}
{"name": "Mitchell Bayley", "location": "Oxenford, QLD", "telephone": "0432259053", "business": "Bayley Electrical & Energy"}
{"name": "Andrew Bayly", "location": "Rushworth, VIC", "telephone": "0433 871 579", "business": "Bayly Solar"}
{"name": "Michael Bazouni", "location": "Merrylands, NSW", "telephone": "0414 480 091", "business": "S&RB Electrical Contractors P/L"}
{"name": "Trant Beacom", "location": "Heathmont, VIC", "telephone": "0431 748 418", "business": "Prana Energy"}
{"name": "Matthew Beahan", "location": "Biloela, QLD", "telephone": "61419756752", "business": "Callide Valley Electrics"}
{"name": "Gregory Beakhurst", "location": "Kedron, QLD", "telephone": "0415 154 274", "business": "SFR Electrical"}
{"name": "Randall Beale", "location": "Charleville, QLD", "telephone": "07 4654 3645", "business": "Charleville Refrigeration & Electrical Pty Ltd"}
{"name": "Matthew Beaman", "location": "Mordialloc, VIC", "telephone": "0410 195 805", "business": "Sole Trader"}
{"name": "Peter Beaman", "location": "Somerville, VIC", "telephone": "401051516", "business": "Freelight Energy"}
{"name": "Toby Bean", "location": "Port Sorell, TAS", "telephone": "0409786680", "business": "GET POWERED ELECTRICAL PTY LTD"}
{"name": "Adam Bear", "location": "Langwarrin, VIC", "telephone": "0400 407 221", "business": "K&H Electrical and Air Conditioning Services"}
{"name": "Jack Beare", "location": "HAWTHORNE, QLD", "telephone": "0457 332 010", "business": "sem group qld"}
{"name": "George Beasley", "location": "Success, WA", "telephone": "0412 249 962", "business": "Solar naturally"}
{"name": "Lachlan Beasley", "location": "Berwick, VIC", "telephone": "0411336771", "business": "Hazard Electrical"}
{"name": "Alan Beasley", "location": "Mindarie, WA", "telephone": "0411 158 838", "business": "AAB Energy Services"}
{"name": "Stuart Beath", "location": "Johnston, NT", "telephone": "0478 505 021", "business": "Sole Trader"}
{"name": "Callum Beaton", "location": "Scullin, ACT", "telephone": "0407 915 139", "business": "Beaton Trade Services"}
{"name": "David Beaton", "location": "Rosedale, QLD", "telephone": "0418 794 351", "business": "Rosedale Electrical Contractors"}
{"name": "Kyran David Beattie", "location": "Bonython, ACT", "telephone": "0435 330 904", "business": "Resolve Electrical Projects"}
{"name": "Marc Beaudry", "location": "Bunbury, WA", "telephone": "0434 816 920", "business": "Magic Electrical Services"}
{"name": "Steve Beaumont", "location": "Macedon, VIC", "telephone": "0354262002", "business": "Ridge Electrical Pty Ltd"}
{"name": "John Beazley", "location": "Hawkesbury Heights, NSW", "telephone": "0414 541 342", "business": "JBEC INSTALLATIONS AND SERVICE"}
{"name": "Simon Bebbington", "location": "Corndale, NSW", "telephone": "02 6688 2376", "business": "Bebbo Electrical"}
{"name": "Jonathan Becka", "location": "Upper Mount Gravatt, QLD", "telephone": "0430 012 357", "business": "Jonathan Becka"}
{"name": "Glenn Beckett", "location": "Lonsdale, South Australia", "telephone": "0488 149 449", "business": "CME Group"}
{"name": "Todd James Beckett", "location": "Acacia Hills, TAS", "telephone": "0422 686 592", "business": "IDD Electrical Pty Ltd"}
{"name": "Joel Beckingham", "location": "Ashtonfield, NSW", "telephone": "02 4017 1181", "business": "HV SOLAR NSW PTY LTD"}
{"name": "Addison Beckmann", "location": "Rural View, QLD", "telephone": "0418 144 716", "business": "AB Electrical & Solar Pty Ltd"}
{"name": "Timothy Bedington", "location": "Brisbane, QLD", "telephone": "0435 577 836", "business": "Timothy Bedington Sole Trader"}
{"name": "Jake Anthony Beerworth", "location": "Thebarton, SA", "telephone": "0401 944 564", "business": "Lovell Electrical"}
{"name": "Joshua Begbie", "location": "Croydon, VIC", "telephone": "0402171739", "business": "Sole Trader"}
{"name": "Daniel Begg", "location": "Albion Park Rail, NSW", "telephone": "04 6639 4290", "business": "Sole Trader"}
{"name": "Jarryd Beggs", "location": "Wantirna South, VIC", "telephone": "0433 837 024", "business": "Hurricane Electrical Services"}
{"name": "Pravanjan Behera", "location": "Shepparton, VIC", "telephone": "0474 534 774", "business": "EDA Project Management Pty Ltd"}
{"name": "Grant Behrendorff", "location": "Kanimbla, QLD", "telephone": "07 4028 3979", "business": "AC Solar Warehouse"}
{"name": "Adnan Bejtic", "location": "Adelaide, SA", "telephone": "0455 999 923", "business": "Adnan Bejtic Sole Trader"}
{"name": "Dursun Bektashev", "location": "Mascot, NSW", "telephone": "0403305659", "business": "Bektash Pty Ltd"}
{"name": "Margaret Violet Bell", "location": "NT", "telephone": "", "business": "Dice (Aust) PTY LTD TA Country Solar NT"}
{"name": "Stuart Bell", "location": "Pottsville, NSW", "telephone": "04 7487 7464", "business": "Bellair Cooling, Gas & Electrical"}
{"name": "Rick Bell", "location": "Point Lonsdale, VIC", "telephone": "0475 043 654", "business": "Sunny Solar Cleaning'"}
{"name": "Mitchell Bell", "location": "Eltham, VIC", "telephone": "W", "business": "Sole Trader"}
{"name": "Steven Bell", "location": "Stanmore, NSW", "telephone": "02 9534 8465", "business": "CleanTech Controls"}
{"name": "Daniel Raymond Bell", "location": "Sheldon, QLD", "telephone": "0417 075 450", "business": "BELLISTIC ELECTRICAL PTY LTD"}
{"name": "Matthew Paul Bell", "location": "Rangeway, WA", "telephone": "0428 444 491", "business": "Electric cool Geraldton"}
{"name": "James Bell", "location": "Cabarita Beach, NSW", "telephone": "0400 243 534", "business": "Sole Trader"}
{"name": "Josh Bell", "location": "Farrants Hill, NSW", "telephone": "0455 602 975", "business": "Blackline Solar and Electrical"}
{"name": "Josh Bell", "location": "Mount hutton, NSW", "telephone": "0402923994", "business": "Sole Trader"}
{"name": "Peter Bell", "location": "Pacific Paradise, QLD", "telephone": "0468 465 009", "business": "Peter Bell Electrical & Solar"}
{"name": "Lincoln Bell", "location": "Moss Vale, NSW", "telephone": "0402 912 205", "business": "Lenergy"}
{"name": "Julian Patrick Bellette", "location": "Tumut, NSW", "telephone": "0499 050 251", "business": "JBE"}
{"name": "Isaac Bellette", "location": "Far Meadow, NSW", "telephone": "0403 978 133", "business": "Bellette Electrical, Solar and Air Conditionig"}
{"name": "Matthew Bellingham", "location": "MacArthur Square, NSW", "telephone": "0414298444", "business": "Allstar Power Solutions Australia"}
{"name": "Edward Bellingham", "location": "Bringelly, NSW", "telephone": "0414 676 395", "business": "bringelly electrical"}
{"name": "Jonathan Bellis", "location": "Diamond Creek, VIC", "telephone": "0421 655 350", "business": "GRID ESC"}
{"name": "Kevin Bellomo", "location": "Mount Pritchard, NSW", "telephone": "0499 851 687", "business": "My Green Energy Pty Ltd"}
{"name": "Matt Bellotti", "location": "Dianella, WA", "telephone": "0437 775 104", "business": "Bellotti Industries Pty Ltd"}
{"name": "Todd Alexander Belsar", "location": "Warana, QLD", "telephone": "0401 974 197", "business": "Astills Electrical"}
{"name": "Nathan Bemrose", "location": "Kelso, NSW", "telephone": "0423791221", "business": "Nathan Bemrose Electrical"}
{"name": "Johannes Benade", "location": "Osborne, SA", "telephone": "0402688020", "business": "Sole Trader"}
{"name": "Vincent Benadie", "location": "Upper Coomera, QLD", "telephone": "0497 080 030", "business": "Ravin Services"}
{"name": "Luke Bender", "location": "Ocean Shores, NSW", "telephone": "0411 287 392", "business": "MTS SOLAR"}
{"name": "Peter Bender", "location": "St Albans, VIC", "telephone": "0448 121 654", "business": "PS Electrical Services P/L"}
{"name": "Gregory Bender", "location": "Chincailla, QLD", "telephone": "0428 654 178", "business": "BURRADOO ENTERPRISES PTY LTD"}
{"name": "Mustapha Benhenni", "location": "Chambers Flat, QLD", "telephone": "61420239107", "business": "Auspac Em"}
{"name": "Jacob Steven Benko", "location": "Unanderra, NSW", "telephone": "02 4272 6444", "business": "WISE Integrated"}
{"name": "Cameron Bennett", "location": "MCCRACKEN, SA", "telephone": "04 6853 3197", "business": "Bennett & Co Electrical"}
{"name": "Zac Anthony Bennett", "location": "Wollongbar, NSW", "telephone": "0478 137 114", "business": "J.N Electrical Contrating Pty Ltd"}
{"name": "Anthony Vernon Bennett", "location": "Adelaide, SA", "telephone": "0427 094 951", "business": "Solar Depot"}
{"name": "David Bennett", "location": "Calala, NSW", "telephone": "02 6765 2408", "business": "D & S Bennett Electrical"}
{"name": "Nathan Bennett", "location": "Aldinga Beach, SA", "telephone": "0409 693 035", "business": "NB Electric"}
{"name": "Aaron Bennett", "location": "Deebing Heights, QLD", "telephone": "0409476913", "business": "Air Solar Electrical Services"}
{"name": "Ryan Bennetts", "location": "Albany Creek, QLD", "telephone": "0404 522 767", "business": "Best Work Electrical"}
{"name": "David Mark Benni", "location": "White Rock, QLD", "telephone": "0468 942 706", "business": "East Coast Energy Solutions"}
{"name": "Daniel Benson", "location": "Thornlands, QLD", "telephone": "0466 819 933", "business": "Sole Trader"}
{"name": "Dale Benson", "location": "Paradise Point, QLD", "telephone": "0422 320 867", "business": "D Benson Electrical"}
{"name": "Jason Benson", "location": "Clifton Grove, NSW", "telephone": "0417225586", "business": "Canobolas Air"}
{"name": "Graham Benstead", "location": "Dunsborough, WA", "telephone": "0419 194 372", "business": "Cape Automation"}
{"name": "David Bentink", "location": "Busselton, WA", "telephone": "0412 630 525", "business": "Vintec Electrical"}
{"name": "Ryan Andrew Bentink", "location": "East Rockingham, WA", "telephone": "08 9591 2992", "business": "RNS Electrical & Maintenance Pty Ltd"}
{"name": "Nicholas Beran", "location": "Glenvale, QLD", "telephone": "0458636681", "business": "Sole Trader"}
{"name": "Eugan Berekoven", "location": "Good Hope, NSW", "telephone": "0405 185 357", "business": "EHB Electrical- Solar and Renewables"}
{"name": "Toby Beresford", "location": "Narrogin, WA", "telephone": "08 98812695", "business": "GREAT SOUTHERN ELECTRICAL SERVICES"}
{"name": "Tomas Daniel Berg", "location": "Murrarie, QLD", "telephone": "0498 381 961", "business": "Power Integration"}
{"name": "Patrick Bergeron", "location": "murwillumbah, NSW", "telephone": "02 6672 6200", "business": "patrick bergeron"}
{"name": "Sascha Bergmann", "location": "Katoomba, NSW", "telephone": "02 4704 9030", "business": "Sascha Alex Bergmann Sole Trader"}
{"name": "Mark Berkelmans", "location": "Morley, WA", "telephone": "08 9275 3800", "business": "Essex Electrics P/L"}
{"name": "Joshua Berkers", "location": "Burleigh Heads, QLD", "telephone": "0481460010", "business": "First Choice Solar"}
{"name": "Peter Berkers", "location": "Burleigh Heads, QLD", "telephone": "07 5667 7598", "business": "First Choice Solar"}
{"name": "Ross Berrett", "location": "Port Macquarie, New South Wales", "telephone": "0400 756 027", "business": "Rocket Electrical Contractors"}
{"name": "Stephen John Berridge", "location": "Mudgee, NSW", "telephone": "0263726138", "business": "Berridge & Gallagher"}
{"name": "Michael Berris", "location": "Mooloolah, QLD", "telephone": "1800 859 315", "business": "Energywise Pty Ltd"}
{"name": "Gregory Berry", "location": "Romsey, VIC", "telephone": "0413 743 745", "business": "G Berry Electrical"}
{"name": "Neil Bertram", "location": "Innisfail, QLD", "telephone": "0419 742 395", "business": "NKB Electrics"}
{"name": "Michael Andrew Berzins", "location": "Dunlop, ACT", "telephone": "0407 090 459", "business": "Enhanced Power and Lighting"}
{"name": "Calvin Berzinski", "location": "REDLYNCH, QLD", "telephone": "0422 223 203", "business": "C and J Electrical"}
{"name": "James Besecke", "location": "BERWICK, VIC", "telephone": "0432 185 101", "business": "Kevtricity"}
{"name": "Romany Shehata Ibrahim Beshara", "location": "chester hill, NSW", "telephone": "0434 193 908", "business": "RBB ELECTRICAL PTY LTD."}
{"name": "Tait Jordan Best", "location": "Moana, SA", "telephone": "0415 181 914", "business": "Best Electrical Contractors"}
{"name": "Stephen Best", "location": "Witchcliffe, WA", "telephone": "08 9794 5492", "business": "Low Carbon Electrical Solutions"}
{"name": "Bernard Bester", "location": "Kingaroy, Queensland", "telephone": "07 4162 7970", "business": "Astills Services Group Pty Ltd"}
{"name": "Philip Beswick", "location": "Trevallyn, TAS", "telephone": "03 6331 8899", "business": "Laser Electrical Launceston"}
{"name": "Bennett Peter Bethune", "location": "Burleigh Heads, Queensland", "telephone": "0422 263 554", "business": "M.R Electrical and Airconditioning"}
{"name": "Chris Betland", "location": "Korora, NSW", "telephone": "02 6656 4353", "business": "Chris Betland Electrical"}
{"name": "Sean Bettess", "location": "Drouin, VIC", "telephone": "0403808713", "business": "Your Electrical Solutions"}
{"name": "Nathan James Bettridge", "location": "Ipswich, QLD", "telephone": "0421 554 271", "business": "BettElec Pty Ltd"}
{"name": "Dillon Betts", "location": "Endeavour hills, VIC", "telephone": "04 0234 2857", "business": "Sole Trader"}
{"name": "Michael Betts", "location": "CALAVOS, QLD", "telephone": "0409 173 584", "business": "Betts Electrical"}
{"name": "Caillim Betts", "location": "Myocum, NSW", "telephone": "0422465895", "business": "Sole Trader"}
{"name": "Mark Beutel", "location": "Beachmere, QLD", "telephone": "07 5496 8166", "business": "Beutel Electronics"}
{"name": "Neil Beveridge", "location": "North Albury, NSW", "telephone": "04 3784 3724", "business": "All Energy Solutions"}
{"name": "Bruce Bewley", "location": "Frenchs Forest, NSW", "telephone": "0403703100", "business": "Current Thinking Electrical"}
{"name": "Ali Beydoun", "location": "Sydney, NSW", "telephone": "0410 564 990", "business": "IECC PTY LTD"}
{"name": "Nicolaas Beyleveld", "location": "Redland Bay, QLD", "telephone": "07 3804 6719", "business": "WHY Electrical & Engineering"}
{"name": "Zakaria Beyrouti", "location": "Rossmore, NSW", "telephone": "0424 406 070", "business": "Bay electrical & communications"}
{"name": "Alexandra Beza", "location": "Waterloo, NSW", "telephone": "0477 438 530", "business": "Global Sustainable Energy Solutions"}
{"name": "Jonathan Bezemer", "location": "Arundel, QLD", "telephone": "0430 744 234", "business": "Individual"}
{"name": "Ravindra Bhagwat", "location": "Westmead, NSW", "telephone": "0405551786", "business": "Ravindra Bhagwat"}
{"name": "Ashish Bhandari", "location": "Merrylands, NSW", "telephone": "0424 914 818", "business": "Rk solar and consulting services"}
{"name": "Sovit Raj Bhandari", "location": "Beenleigh, QLD", "telephone": "0450 918 504", "business": "SRB Electrical & Solar Services"}
{"name": "Udayan Bhanot", "location": "Mooroolbark, VIC", "telephone": "0432 488 759", "business": "UB Energy Pty Ltd"}
{"name": "Dinyar Bharucha", "location": "Truganina, VIC", "telephone": "0476007827", "business": "Underground Cable Systems Pty Ltd"}
{"name": "Felix Galih Bhaswara", "location": "Strathfield, NSW", "telephone": "0410 181 484", "business": "Individual"}
{"name": "Lakhvinder S Bhatia", "location": "AINTREE, VIC", "telephone": "0433 985 786", "business": "Harry Electricals pty ltd"}
{"name": "Akhilesh Bhavanam", "location": "Yeronga, QLD", "telephone": "0400 863 040", "business": "Sole Trader"}
{"name": "Amandeep Bhullar", "location": "Newton, SA", "telephone": "0457 525 253", "business": "Sole Trader"}
{"name": "Steven Bhungard", "location": "Rowville, Victoria", "telephone": "0422271052", "business": "Next Generation Electrical"}
{"name": "Sandeep Kumar Reddy Bhuthalapalli", "location": "Fortitude Valley, QLD", "telephone": "0413731286", "business": "Next Generation Electrical"}
{"name": "Riley Bibby", "location": "Glenella, QLD", "telephone": "1800 765 279", "business": "Collective power solutions"}
{"name": "Trent-Nathan James Biddle", "location": "Underwood, QLD", "telephone": "+6 1447 7", "business": "Solar Hybrids Conversions Pty Ltd"}
{"name": "Craig Bidgood", "location": "ACTON PARK, TAS", "telephone": "0419 146 444", "business": "Green Electrical"}
{"name": "Andrew Bidwell", "location": "Carrum Downs, Victoria", "telephone": "03 9770 8963", "business": "Bidwell Electrics Pty Ltd"}
{"name": "Chris Biega", "location": "Coopernook, NSW", "telephone": "0402 734 033", "business": "Life Electrical & Solar"}
{"name": "Charlie Bielefeld", "location": "Young, NSW", "telephone": "02 6382 7701", "business": "Stag Electrical, Solar & Refrigeration"}
{"name": "Tyson Bigham", "location": "CHIRNSIDE PARK, VIC", "telephone": "0429593916", "business": "TW Electrical Contractors"}
{"name": "Lewis Matthew Bignell", "location": "South Kalgoorlie, WA", "telephone": "08 9021 7568", "business": "K Carter Electrical"}
{"name": "Adam Bignell", "location": "Palmview, QLD", "telephone": "0493 405 015", "business": "Celtic Solar"}
{"name": "Levi Bilivalu", "location": "Jamisontown, NSW", "telephone": "02 4722 0277", "business": "Sustainable Energy Network Solutions"}
{"name": "Winsent Biljon", "location": "Atwell, WA", "telephone": "0498 708 653", "business": "Auswin Electrical Services"}
{"name": "Michael Billias", "location": "Woolner, NT", "telephone": "0439 893 111", "business": "MBL Electrical NT Pty Ltd"}
{"name": "Brock Billing", "location": "Torquay, Victoria", "telephone": "", "business": "Individual"}
{"name": "Thomas Billings", "location": "Finley, NSW", "telephone": "0490486760", "business": "N/A"}
{"name": "Stephen Billington", "location": "Point Cook, VIC", "telephone": "0499 187 799", "business": "Next Generation Electrical"}
{"name": "Jakeb Stephen Bilsborough", "location": "Rockingham, WA", "telephone": "04 1106 6877", "business": "Induced Electrical Pty Ltd"}
{"name": "Ian Bilson", "location": "Merewether, NSW", "telephone": "04 0049 0078", "business": "Sole Trader"}
{"name": "Andrew John Bindon", "location": "Lysterfield, VIC", "telephone": "0418 105 064", "business": "Chill Control Pty Ltd"}
{"name": "Simon Binney", "location": "Cranbourne West, VIC", "telephone": "0415 950 579", "business": "JCB Electrical"}
{"name": "Zac Binns", "location": "West Ulverstone, TAS", "telephone": "0423 761 657", "business": "DMS Energy"}
{"name": "Braden Binse", "location": "Narre Warren, VIC", "telephone": "0426 972 106", "business": "Cherry Energy Solutions"}
{"name": "Mark Birch", "location": "drouin, VIC", "telephone": "0401 705 706", "business": "Sole Trader"}
{"name": "Damian Albert Birch", "location": "Loganlea, QLD", "telephone": "0432 683 981", "business": "Birch Electrical & Solar PTY LTD"}
{"name": "Isaac Alan Birchley", "location": "Undullah, QLD", "telephone": "0439 210 448", "business": "AMPLIFY ELECTRICAL PTY LTD"}
{"name": "Adam Bird", "location": "Torquay, VIC", "telephone": "0421 035 994", "business": "Adam Bird Electrics"}
{"name": "Luke Bird", "location": "Miami, QLD", "telephone": "0451 438 211", "business": "Individual"}
{"name": "Aaron Bird", "location": "Geeveston, TAS", "telephone": "0427 022 461", "business": "Aaron Bird Electrical"}
{"name": "Jesse Bird", "location": "Traralgon, VIC", "telephone": "0447 310 236", "business": "J.H.B Electrical"}
{"name": "Blake Birkett", "location": "Gorokan, NSW", "telephone": "0423 689 146", "business": "Rising Sun Solar and Electrical"}
{"name": "Cameron Birkett", "location": "worrigee, NSW", "telephone": "0423 731 437", "business": "cameron birkett electrical"}
{"name": "James Caleb Birkinshaw", "location": "Coorparoo, QLD", "telephone": "0409810234", "business": "South East Solar & Maintenance"}
{"name": "David Birks", "location": "Nambucca Heads, NSW", "telephone": "0416 916 606", "business": "Birks Solar and Electrical"}
{"name": "Thomas Birnie", "location": "Nailsworth, SA", "telephone": "04 0433 3599", "business": "Goliath Solar & Electrical"}
{"name": "Phillip Birnie", "location": "Eagle Point, VIC", "telephone": "0427 514 736", "business": "PJB Electrical Contractors"}
{"name": "Kurt James Birse", "location": "Currumbin Waters, QLD", "telephone": "0450 200 611", "business": "Sole Trader"}
{"name": "Mark Altham Birtwistle", "location": "Elanora, QLD", "telephone": "0416 121 364", "business": "O'Brien Electrical"}
{"name": "Lawrence Raymond Bishop", "location": "Kurrajong, NSW", "telephone": "0401 725 701", "business": "Bishop and Co Electrical pty ltd"}
{"name": "William Bishop", "location": "Caringbah South, NSW", "telephone": "0414 002 040", "business": "cabe Electrical services PtyLtd"}
{"name": "Robert Bishop", "location": "Atherton, QLD", "telephone": "0740913776", "business": "RMB Bishop Construction"}
{"name": "Steve Bisp", "location": "Southport BC, QLD", "telephone": "0451 651 007", "business": "SJB Electrical"}
{"name": "Jordan Samuel Bissett", "location": "Carramar, WA", "telephone": "0499977459", "business": "Robson & Sons Electrical"}
{"name": "Simon Grant Biszko", "location": "Bairnsdale, VIC", "telephone": "1300 859 979", "business": "Powerhouse Shop"}
{"name": "Robert Biviano", "location": "Orange, NSW", "telephone": "0414 986 830", "business": "Central West Solar"}
{"name": "Leyton Black", "location": "Pakenham, VIC", "telephone": "0433 604 446", "business": "Enervest"}
{"name": "Stephen Black", "location": "Latham, ACT", "telephone": "0466 660 374", "business": "Majura Electrical and Solar"}
{"name": "James Black", "location": "Upper Coomera, Queensland", "telephone": "0433 778 814", "business": "Yuma Energy"}
{"name": "Aidan Black", "location": "broken Hill, NSW", "telephone": "0403367490", "business": "Sole Trader"}
{"name": "Benjamin James Black", "location": "Wallaga Lake, NSW", "telephone": "0428 597 974", "business": "Shane Black Energy Services"}
{"name": "Jeffery Black", "location": "Woodford, QLD", "telephone": "07 5496 1555", "business": "Black Bros"}
{"name": "Adam Black", "location": "Taabinga, QLD", "telephone": "0407589612", "business": "Burnett Electrical Services Pty Ltd"}
{"name": "Robbie Black", "location": "Clear Island Waters, QLD", "telephone": "0403489928", "business": "Gilston Electrical PTY LTD"}
{"name": "Scott Black", "location": "Emerald, QLD", "telephone": "0419 727 114", "business": "Scott Black Solar"}
{"name": "Craig Black", "location": "Sawtell, NSW", "telephone": "0414 582 843", "business": "Craig Black Electrical"}
{"name": "Bruce Blackburn", "location": "Nannup, WA", "telephone": "08 9756 3076", "business": "Solarwest"}
{"name": "Robert Blackford", "location": "Seaford Rise, South Australia", "telephone": "0406309357", "business": "Seaford Electrical and Solar"}
{"name": "Andrew Derk Blackley", "location": "Albion Park, NSW", "telephone": "0488227244", "business": "AG Solar"}
{"name": "Glenn Blackwell", "location": "Merriwa, WA", "telephone": "0487699616", "business": "AGF Energy"}
{"name": "Craig Blaik", "location": "Nome, QLD", "telephone": "0448 870 119", "business": "Lazzaroni Electrical"}
{"name": "Brodie Blain", "location": "Battery Hill, QLD", "telephone": "0422 552 996", "business": "Sole Trader"}
{"name": "Aaron Blain", "location": "Grassmere, VIC", "telephone": "0438 906 858", "business": "Renovation Electrical Design"}
{"name": "David Blakeley", "location": "Berwick, VIC", "telephone": "488222170", "business": "Macker Corp Pty Ltd"}
{"name": "Thomas Blakelock", "location": "Sunnybank, QLD", "telephone": "0420 631 206", "business": "Amplify electrical"}
{"name": "Spencer Blakemore", "location": "Medlow Bath, NSW", "telephone": "0478610414", "business": "Sole Trader"}
{"name": "Owen Blamires", "location": "Wondai, QLD", "telephone": "0448 840 142", "business": "Sole Trader"}
{"name": "Jayden Blanch", "location": "Marburg, QLD", "telephone": "0421 161 224", "business": "Expert Energy Co Pty Ltd"}
{"name": "Greg Blanchard", "location": "Tewantin, QLD", "telephone": "0414 158 620", "business": "Middle Brother Group Pty Ltd"}
{"name": "Callan Blanchknox", "location": "Valdora, QLD", "telephone": "0422065152", "business": "barefoot electrical"}
{"name": "Alexander Blanco", "location": "Wyoming, NSW", "telephone": "04 6895 5659", "business": "Tru Blu Solar Co"}
{"name": "Terence Blatchford", "location": "Elimbah, QLD", "telephone": "0409 164 165", "business": "Blatchy Electrician"}
{"name": "Mitchell Blatchford", "location": "Thurgoona, NSW", "telephone": "0422084659", "business": "MB Electrical & Data"}
{"name": "Danniel Blayney", "location": "Tamborine Mountain, QLD", "telephone": "0409 349 187", "business": "Noshorts Electrical"}
{"name": "Tyler Bleakley", "location": "Edens Landing, QLD", "telephone": "0490 064 451", "business": "Hiettecorp Pty Ltd"}
{"name": "Dermot Liam Blesing", "location": "Glandore, SA", "telephone": "0477 788 490", "business": "C & R All Spark Electrical"}
{"name": "Peter Blessing", "location": "Tewantin, QLD", "telephone": "0731185243", "business": "Solar Distributors Pty Ltd"}
{"name": "Jacob Blias", "location": "Bonnells Bay, NSW", "telephone": "0400 601 761", "business": "J.B Electrical Central Coast Pty Ltd"}
{"name": "Quentin Bligh", "location": "Metricup, WA", "telephone": "04 2793 1821", "business": "The Natural Grid"}
{"name": "Billy Bloomer", "location": "Chirnside Park, VIC", "telephone": "0430 472 272", "business": "Oasis Air Conditioning and Solar"}
{"name": "Sean Bloor", "location": "Gladesville, NSW", "telephone": "0435 511 696", "business": "Power saving solutions"}
{"name": "Daniel James Blowes", "location": "Raglan, NSW", "telephone": "02 5322 1807", "business": "Blowes Electrical"}
{"name": "Nathan Blundell", "location": "Mt Eliza, VIC", "telephone": "413955324", "business": "Pro Fx Electrical"}
{"name": "Sean Blundell", "location": "West Busselton, WA", "telephone": "0408 124 282", "business": "Sean Blundell Electrical"}
{"name": "Riley Blundell", "location": "Narara, NSW", "telephone": "0400 560 907", "business": "North Face Electrical and Solar"}
{"name": "Caleb Charles Blunden", "location": "Swan View, WA", "telephone": "0426 265 813", "business": "Sunterra"}
{"name": "Richard Charles Blythe", "location": "Nambour, QLD", "telephone": "0450 733 758", "business": "Southern Cross Power"}
{"name": "Leland Geoffrey Blyton", "location": "Harolds Cross, New South Wales", "telephone": "0402 530 456", "business": "Lazer Electrical Braidwood"}
{"name": "David Blyzno", "location": "Glengowrie, SA", "telephone": "0408 829 570", "business": "David Blyzno Electrical Contractor"}
{"name": "Chao Bo", "location": "Wattle Park, SA", "telephone": "0452 612 879", "business": "Grand Group Australia Pty Ltd"}
{"name": "Derek Boag", "location": "Tweed Heads South, NSW", "telephone": "0403 377 799", "business": "Boags Electrical Services pty ltd"}
{"name": "Sean Bobbermien", "location": "Zillmere, QLD", "telephone": "0417 739 834", "business": "ABW Electrical Solutions Pty Ltd"}
{"name": "Warren Bock", "location": "Caloundra West, QLD", "telephone": "0424 301 766", "business": "Blue Sky Electrical Services pty ltd"}
{"name": "Jonathan Bocking", "location": "Zetland, NSW", "telephone": "0407408430", "business": "EnerSky Pty Ltd"}
{"name": "Timothy Lloyd Boddey", "location": "Aldinga Beach, SA", "telephone": "0420 907 759", "business": "TLB Electrical"}
{"name": "Aravind Boddula", "location": "Burwood, VIC", "telephone": "0406 133 070", "business": "Energy Aware"}
{"name": "Christopher John Bodel", "location": "Lauderdale, TAS", "telephone": "0457 192 694", "business": "Iconic Electrical Solutions"}
{"name": "Jack Boenke", "location": "Burleigh Town, QLD", "telephone": "04 1668 8261", "business": "GCQ Electrical PTY LTD"}
{"name": "Steven Boer", "location": "Wesburn, VIC", "telephone": "418333439", "business": "Oasis Air Conditioning and Solar"}
{"name": "Warren Bolch", "location": "Tooradin, VIC", "telephone": "0407 524 244", "business": "New World Solar Solutions"}
{"name": "Daniel Bolden", "location": "Mackay Harbour, QLD", "telephone": "07 4954 9112", "business": "Bolden Electrical Pty Ltd"}
{"name": "Ashley Peter Bolger", "location": "Helensvale, Queensland", "telephone": "0476 184 730", "business": "Lumos Electrical"}
{"name": "Andrew Bolitho", "location": "Narre Warren North, VIC", "telephone": "402689290", "business": "Abol Elec"}
{"name": "Luke Bolton", "location": "Mullaloo, WA", "telephone": "08 9403 4206", "business": "Lite Force Pty Ltd"}
{"name": "Matthew Peter Bolton", "location": "Kennington, VIC", "telephone": "03 5444 2898", "business": "MPB Electrical Pty Ltd"}
{"name": "Wade Bolton", "location": "Coorparoo, QLD", "telephone": "0403 355 781", "business": "Boltec Electrical Pty Ltd"}
{"name": "Lachlan Bolwell", "location": "Bigga, NSW", "telephone": "0429 326 963", "business": "Paramount Electrical NSW"}
{"name": "Michael Bonacini", "location": "Riddells Creek, VIC", "telephone": "0401 661 400", "business": "Powered Services Electrical Contractor"}
{"name": "Richard Bonato", "location": "Bushland Beach, QLD", "telephone": "0408 186 426", "business": "VanAyr Pty Ltd t/as Bonato Electrical"}
{"name": "Luke Bonaz", "location": "Kingscliff, NSW", "telephone": "0403247765", "business": "Renewable Designs"}
{"name": "Grant Bond", "location": "North Rockhampton, QLD", "telephone": "0418 732 883", "business": "Solartech Energy Solutions"}
{"name": "Daniel Bond", "location": "Pine Creek, QLD", "telephone": "0414 221 460", "business": "Bond Electrical Pty Ltd"}
{"name": "Lachlan Bond", "location": "Horsham, VIC", "telephone": "03 5382 6777", "business": "Bondy's Contractors"}
{"name": "Damian Bonello", "location": "Innisfail, QLD", "telephone": "0427058538", "business": "Damian Bonello Electrics Pty Ltd"}
{"name": "Cody Alen Boness", "location": "Mudgee, NSW", "telephone": "0467528384", "business": "Solar Pumping Solutions"}
{"name": "Darren Bonetti", "location": "Port Augusta, SA", "telephone": "0428414257", "business": "Sole Trader"}
{"name": "Joseph Anthony Bonfiglio", "location": "Morley, WA", "telephone": "0431 254 154", "business": "Multitech Electrical"}
{"name": "Christopher Bonney", "location": "Berri, SA", "telephone": "0433731989", "business": "Chris Bonney Electrical Pty Ltd"}
{"name": "Ricki Bonsey", "location": "Roma, QLD", "telephone": "0447 242 084", "business": "NRG Services"}
{"name": "Adam David Bontempo", "location": "Piara Waters, WA", "telephone": "0403 384 263", "business": "WEST STATE ELECTRICS"}
{"name": "Sunildut Boodhun", "location": "East Cannington, WA", "telephone": "0435567578", "business": "RELIANCE POWER"}
{"name": "Edward Booker", "location": "Horsham, VIC", "telephone": "0401405595", "business": "QA Electrical Industrial Services"}
{"name": "Timothy Booker", "location": "bulimba, QLD", "telephone": "0432009647", "business": "Warbook Pty Ltd"}
{"name": "Jordan Mark Booker", "location": "Merrimac, QLD", "telephone": "0410 368 106", "business": "Individual"}
{"name": "Jason Scott Boome", "location": "Worrigee, NSW", "telephone": "02 4423 4686", "business": "IJED Electric and Data"}
{"name": "Vigneswari Boominathan", "location": "Liverpool, NSW", "telephone": "0468458001", "business": "Sole Trader"}
{"name": "Dante Booth-Bruscino", "location": "Caroline Springs, VIC", "telephone": "0452 492 250", "business": "Individual"}
{"name": "Haidyn Boothey", "location": "Mambourin, VIC", "telephone": "13 0034 8847", "business": "City to surf solar"}
{"name": "Marc James Boreland", "location": "Conjola Park, NSW", "telephone": "0418 415 445", "business": "Conjola Electrical & Solar"}
{"name": "Joshua Mathew Borell", "location": "Edens Landing, QLD", "telephone": "0416 959 599", "business": "Borell Electrical Services"}
{"name": "Andrew Gary George Borg", "location": "Bligh Park, NSW", "telephone": "0414 900 891", "business": "B And E installations Pty Ltd"}
{"name": "Jason Borg", "location": "KELLYVILLE, NSW", "telephone": "0401 279 578", "business": "Platinum Electricians Castle Hill Pty Ltd"}
{"name": "Justin Borg", "location": "HORSLEY PARK, NSW", "telephone": "0423 403 870", "business": "Borg Energy"}
{"name": "Adam Borg", "location": "Llandilo, NSW", "telephone": "0412282049", "business": "Powerstorm Electrical Pty Ltd"}
{"name": "Aaron Borg", "location": "AIRPORT WEST, Victoria", "telephone": "", "business": "RACV"}
{"name": "David Borg", "location": "Falls Creek, NSW", "telephone": "02 44478024", "business": "Borg Power Solutions Pty Ltd"}
{"name": "Paul Borg", "location": "Shoalhaven Heads, NSW", "telephone": "0412 466 410", "business": "3 Way Electrical Services"}
{"name": "Sudheer Borra", "location": "Berwick, VIC", "telephone": "04 5156 5433", "business": "Ramco energitiks pty ltd"}
{"name": "Kyle Edward Borresen", "location": "Alexandra Hills, QLD", "telephone": "", "business": "Sole Trader"}
{"name": "Bianca Borysiewicz", "location": "Cremorne, NSW", "telephone": "0407 352 225", "business": "Arc Renewable Group"}
{"name": "Michael Boseley", "location": "Hove, SA", "telephone": "0433 207 987", "business": "EAS PTY LTD"}
{"name": "Victor Bossley", "location": "Stafford, QLD", "telephone": "0413376205", "business": "Victor Voltage"}
{"name": "Kane Bostock", "location": "Heathridge, WA", "telephone": "0431469763", "business": "KB Electrical and Air Pty Ltd"}
{"name": "Scott Boswell", "location": "Greenwith, SA", "telephone": "0402 350 893", "business": "Boz Electric Services"}
{"name": "Chad Bosworth", "location": "Pacific Pines, QLD", "telephone": "0417 329 085", "business": "All Set Electrical Pty Ltd"}
{"name": "Matthew Botfield", "location": "Minto, NSW", "telephone": "02 4628 8811", "business": "B&E Installations Pty Ltd"}
{"name": "Benjamin James Botfield", "location": "Currimundi, QLD", "telephone": "0427 627 650", "business": "Sole Trader"}
{"name": "Pierre Bou Zaidan", "location": "Merrylands, NSW", "telephone": "0422 266 656", "business": "Sole Trader"}
{"name": "Adam Bouali", "location": "Everton Hills, QLD", "telephone": "0491617273", "business": "Sole Trader"}
{"name": "Hamza Boucetta", "location": "Bass Hill, NSW", "telephone": "0448 852 438", "business": "BH TRADING PTY LTD"}
{"name": "Sotirios Bouhoris", "location": "Bonogin, QLD", "telephone": "0401088701", "business": "Queensland Commercial Solar"}
{"name": "Cody John Boulding", "location": "Yass, NSW", "telephone": "0498 998 875", "business": "Yass Valley Solar"}
{"name": "Ashton Boully", "location": "River Heads, QLD", "telephone": "0422 844 850", "business": "Ashton James Boully Contracting"}
{"name": "David Clifford Boulton", "location": "Orange, NSW", "telephone": "02 6362 2733", "business": "Solahart Central Tablelands"}
{"name": "Ian Boulton", "location": "Ruffy, VIC", "telephone": "0408990487", "business": "Ezy Electrical Services"}
{"name": "Mathys Bouma", "location": "Alexandria, NSW", "telephone": "04 6696 4134", "business": "Todae Solar Pty Ltd"}
{"name": "Louie Bouras", "location": "Findon, SA", "telephone": "0418 812 305", "business": "LBB Electrical"}
{"name": "Llayton McKenzie Bourke", "location": "Metford, NSW", "telephone": "04 2886 1294", "business": "Elite Power Group"}
{"name": "Luke Bourke", "location": "Alfredton, Victoria", "telephone": "0439 346 272", "business": "High End Electrical and Solar Pty Ltd"}
{"name": "Nathan Bourke", "location": "South Spreyton, TAS", "telephone": "0458 999 050", "business": "Genr8 Electrical"}
{"name": "Luke Bourne", "location": "Brighton, VIC", "telephone": "0428 242 942", "business": "GSA ELECTRICAL CONTRACTORS AND ENGINEERS P/L"}
{"name": "Albert Bourne", "location": "Rasmussen, QLD", "telephone": "0448 995 285", "business": "AWB Electrical & Maintenance Services"}
{"name": "David Boutros", "location": "Kensington, NSW", "telephone": "0414 820 380", "business": "one power solar & electrical"}
{"name": "Michael Eugene Bouts", "location": "mckinnon, VIC", "telephone": "03 9578 0935", "business": "mckinnon green electrical contractors"}
{"name": "Valene Bouya", "location": "Pakenham, VIC", "telephone": "0421 842 311", "business": "Profx"}
{"name": "Clint Bowden", "location": "DAPTO, NSW", "telephone": "0408 972 885", "business": "O'Brien Electrical Albion Park"}
{"name": "Colin Bowe", "location": "Hamilton Hill, WA", "telephone": "0401 537 654", "business": "Sole Trader"}
{"name": "Brandt Bowen", "location": "Mooloolah Valley, QLD", "telephone": "0422 866 530", "business": "Sole Trader"}
{"name": "Tyson Bowen", "location": "Moffat Beach, QLD", "telephone": "0400 515 966", "business": "Sole Trader"}
{"name": "Jhy Bower", "location": "Ballan, VIC", "telephone": "0458 978 920", "business": "KEEMIN electrical"}
{"name": "Joshua Adam Bower", "location": "Ellalong, NSW", "telephone": "0434 443 403", "business": "Solahart Newcastle"}
{"name": "Darryl Bower", "location": "Wangara, WA", "telephone": "08 9470 1900", "business": "CDI Electrics Pty Ltd"}
{"name": "Domenic Bowles", "location": "Grovedale, VIC", "telephone": "448332641", "business": "Total Solar & Electrical"}
{"name": "Neville Bowles", "location": "Emu Park, QLD", "telephone": "0749396368", "business": "Emulec Electrical Services"}
{"name": "Morgan Bowling", "location": "Bellingen, NSW", "telephone": "0416 226 457", "business": "All Things Electrical Central Coast"}
{"name": "Christopher Bowman", "location": "Wattle Grove, WA", "telephone": "0431 896 871", "business": "Fourie Industries"}
{"name": "Grant Box", "location": "Bulgarra, WA", "telephone": "0439 382 821", "business": "Cheeditha Energy Pty Ltd"}
{"name": "Bradley Andrew Box", "location": "Tugun, QLD", "telephone": "0413 898 637", "business": "Rjay Electrical"}
{"name": "Sean Box", "location": "Rydalmere, NSW", "telephone": "02 9684 9167", "business": "Rheem Australia/Solahart"}
{"name": "Justin Boyanton", "location": "Sippy Downs, QLD", "telephone": "0458608257", "business": "Sole Trader"}
{"name": "Tony Boyanton", "location": "Maroochydore, QLD", "telephone": "0411 333 927", "business": "Powerfull Electrix P/L"}
{"name": "Corey Boyd", "location": "Bondi Junction, NSW", "telephone": "0491 661 094", "business": "Solarshare Project"}
{"name": "Christopher David Boyd", "location": "Glossodia, NSW", "telephone": "0423 282 524", "business": "B&E Installations"}
{"name": "Mathew Boyd", "location": "Point Lonsdale, VIC", "telephone": "0448 884 498", "business": "Sunny Solar Cleaning'"}
{"name": "Graeme Boyd", "location": "Koondrook, VIC", "telephone": "03 5453 1742", "business": "Boyd Electrical"}
{"name": "Antony Boyd", "location": "Yaroomba, QLD", "telephone": "0421 100 486", "business": "Keystones Electrical QLD"}
{"name": "Rodney Boyd", "location": "blackalls park, NSW", "telephone": "1300 500 769", "business": "Twin Solar"}
{"name": "Kane Boyle", "location": "Cooranbong, NSW", "telephone": "0424 235 892", "business": "Venux Electrical"}
{"name": "Robert Boyle", "location": "Baxter, VIC", "telephone": "04 0412 4696", "business": "Solar Run Australia"}
{"name": "David Boyle", "location": "Moana, SA", "telephone": "403208088", "business": "Solar South"}
{"name": "Phillip Bozinovski", "location": "Springrange, NSW", "telephone": "0433 419 931", "business": "Meta electrical and solar"}
{"name": "Anske Braaksma", "location": "Bunyip, VIC", "telephone": "0439 480 493", "business": "AWB Electrical Services"}
{"name": "Mitchell Donald Wilshire Bradbury", "location": "Clayfield, QLD", "telephone": "07 3392 3883", "business": "SEQ Electrical Contractors"}
{"name": "Samuel Brader", "location": "Minyama, QLD", "telephone": "0474 161 345", "business": "Sole Trader"}
{"name": "Peter Bradfield", "location": "Dee Why, NSW", "telephone": "0428 073 223", "business": "Lectrotec"}
{"name": "Dylan Bradford", "location": "Lavington, NSW", "telephone": "04 5869 6854", "business": "Sparkd Electrical"}
{"name": "Simon Bradley", "location": "Byford, WA", "telephone": "0477043315", "business": "Netspark Pty Ltd"}
{"name": "Mathew Bradley", "location": "Quarry Hill, VIC", "telephone": "0455 502 757", "business": "Ashcroft electrical"}
{"name": "Shannon Bradley", "location": "EDEN, NSW", "telephone": "0427622913", "business": "RACV Solar"}
{"name": "Luke Daniel Bradley", "location": "Chapman, ACT", "telephone": "04 0733 4134", "business": "Spectrum Solar and Electrical"}
{"name": "Egan John Bradshaw", "location": "Gawler, TAS", "telephone": "0474 744 792", "business": "Solar trader"}
{"name": "Steven Bradshaw", "location": "Maryborough, QLD", "telephone": "07 4121 4294", "business": "Watkins Electrical"}
{"name": "Robert Brady", "location": "Mount Cotton, QLD", "telephone": "0409 504 602", "business": "Sole Trader"}
{"name": "Anthony Brady", "location": "Gregory Hills, NSW", "telephone": "0403 565 690", "business": "Anthony Joseph Brady"}
{"name": "Geoff Bragg", "location": "Invergowrie, NSW", "telephone": "0429 2332 41", "business": "Sunman Solar Pty Ltd"}
{"name": "Terry Brain", "location": "Figtree, NSW", "telephone": "0421 519 509", "business": "Sole Trader"}
{"name": "Justin Bralic", "location": "Wingfield, SA", "telephone": "0409 440 491", "business": "Solarlab"}
{"name": "Martin Jamison Bramall", "location": "Sapphire Beach, NSW", "telephone": "0448882149", "business": "Sapphire Beach Solar Pty Ltd"}
{"name": "Adrian Anthony Bramante", "location": "Brunswick East, VIC", "telephone": "0402 045 182", "business": "Braetex Electrical Contractors Pty Ltd"}
{"name": "Ian Branchett", "location": "South Mackay, QLD", "telephone": "0431 336 052", "business": "Sole Trader"}
{"name": "Bayley Bransgrove", "location": "Newborough, VIC", "telephone": "04 1893 5625", "business": "Hills Energy Solutions"}
{"name": "Jacob Brasher", "location": "Rainbow Beach, QLD", "telephone": "0448 195 070", "business": "Earth First Electrical"}
{"name": "Dylan Brasher-Stone", "location": "Keysborough, VIC", "telephone": "0435 975 599", "business": "Limitless energy group"}
{"name": "Matthew Peter Braun", "location": "Forster, NSW", "telephone": "0410 560 744", "business": "Solarite (NSW) Pty Ltd"}
{"name": "Frammar Bravo", "location": "Macquarie fields, NSW", "telephone": "0416494707", "business": "Independent"}
{"name": "Karl Bray", "location": "Pimpama, QLD", "telephone": "04 4776 1521", "business": "Sole Trader"}
{"name": "Daniel Bray", "location": "Sale, VIC", "telephone": "0400 192 193", "business": "Solargain Gippsland"}
{"name": "James Bray", "location": "Huntly, VIC", "telephone": "0400 934 548", "business": "Stanalec"}
{"name": "Hayden Bray", "location": "Samford Valley, QLD", "telephone": "0491 824 309", "business": "Braylec Electrical"}
{"name": "Steven Braybrook", "location": "Nhill, Victoria", "telephone": "03 5391 2004", "business": "Western Electrical & Refrigeration"}
{"name": "Chris Brayley", "location": "Charleville, QLD", "telephone": "0417 634 602", "business": "Brayley electrical"}
{"name": "Jaycob Brazier", "location": "Kingaroy, QLD", "telephone": "07 4162 7970", "business": "ASTILLS ELECTRICAL SERVICES P/L"}
{"name": "Adrian Brazier", "location": "Chinchilla, QLD", "telephone": "0400 400 576", "business": "Barbwired Electrical Pty Ltd"}
{"name": "Bill Brazier", "location": "ALEXANDRA HILLS, QLD", "telephone": "0400 876 527", "business": "SOLAGIFT Technologies"}
{"name": "Tomislav Brdanovic", "location": "Gawler South, SA", "telephone": "0411 403 257", "business": "Tandem Energy"}
{"name": "Shaun Breadsell", "location": "Birkdale, QLD", "telephone": "07 3134 0966", "business": "TASK Industries Pty Ltd"}
{"name": "David Breen", "location": "Currans Hill, NSW", "telephone": "04 1904 6537", "business": "CSR Bradford"}
{"name": "Stephen John Breheny", "location": "Castlemaine, VIC", "telephone": "0415 507 777", "business": "Sb Solar Battery"}
{"name": "Scott Brennan", "location": "Conjola Park, NSW", "telephone": "0408 478 795", "business": "Scott Brennan Sole Trader"}
{"name": "Daniel Brennan", "location": "Tweed Heads South, NSW", "telephone": "0447 000 414", "business": "Sole Trader"}
{"name": "Dylan Brent", "location": "Carbrook, QLD", "telephone": "0447009745", "business": "Taylor Energy Pty Ltd"}
{"name": "Daniel Brent", "location": "Redland Bay, QLD", "telephone": "0437 788 326", "business": "Sole Trader"}
{"name": "Michael Brenton", "location": "Moil, NT", "telephone": "0407 475 590", "business": "Orbit Contracting Pty Ltd"}
{"name": "Abdul Habib Brenzai", "location": "Narre Warren South, VIC", "telephone": "0466 466 047", "business": "SP4RK ELECTRICAL PTY LTD"}
{"name": "Ryan Bretag", "location": "Bundaberg north, QLD", "telephone": "07 4151 7627", "business": "Pulse Electrical"}
{"name": "Troy Bretherton", "location": "Miami, QLD", "telephone": "0755728713", "business": "BME Energy Pty Ltd"}
{"name": "Sam Brett", "location": "Ulverstone, TAS", "telephone": "0447085596", "business": "GJ Apliance and Electrical"}
{"name": "Lucas Brett", "location": "banks, ACT", "telephone": "0422718870", "business": "Red Sun Solar"}
{"name": "Shaune Brewer", "location": "Wavell Heights, QLD", "telephone": "0400270267", "business": "Sole Trader"}
{"name": "Shane Brewer", "location": "Queanbeyan, NSW", "telephone": "0433 598 472", "business": "Island Solar"}
{"name": "Scott Brewood", "location": "Woongoolba, qld", "telephone": "0409 644 615", "business": "XL Electrical"}
{"name": "Matthew Brick", "location": "worongary, QLD", "telephone": "0408642897", "business": "Sole Trader"}
{"name": "Leo Brickhill", "location": "Southport, QLD", "telephone": "0407 267 659", "business": "Individual"}
{"name": "Chris Bridgham", "location": "Abbey, WA", "telephone": "0474447645", "business": "Bayside Electrical and Communication Service"}
{"name": "Paul Bridgman", "location": "Woree, QLD", "telephone": "0401 143 487", "business": "Replenishable Energy"}
{"name": "Alexander Briers", "location": "Clifford Gardens, QLD", "telephone": "0439 454 048", "business": "Willaway Air Conditioning & Electrical Pty Ltd"}
{"name": "Shaun Bright", "location": "Mount Barker, SA", "telephone": "0412 052 411", "business": "Turpin Electrical"}
{"name": "Aaron Bright", "location": "Ormeau, QLD", "telephone": "0498 290 140", "business": "Sole Trader"}
{"name": "Jason Bright", "location": "Mount Gambier, SA", "telephone": "0407538157", "business": "Stuckey Electrical Contractors"}
{"name": "Kieran Brimelow", "location": "Bayswater North, VIC", "telephone": "03 9729 0984", "business": "total solar solutions"}
{"name": "Andre Mark Brinckman", "location": "Richlands, Queensland", "telephone": "07 3022 3301", "business": "Protech Energy Group"}
{"name": "Nicholas James Brind", "location": "Ardrossan, SA", "telephone": "0418 216 074", "business": "N.J.Brind Electrical"}
{"name": "Glenn Briody", "location": "Maldon, VIC", "telephone": "0476 214 389", "business": "Glennerator Electrical"}
{"name": "Nicholas Briody", "location": "Wendouree, VIC", "telephone": "03 5339 8087", "business": "Ballarat Solar Panels"}
{"name": "David Brissett", "location": "Narre Warren, VIC", "telephone": "04 80356108", "business": "DMB ELECTRICAL"}
{"name": "Joel Bristow", "location": "Maffra, VIC", "telephone": "0439 130 123", "business": "Boltz contractors"}
{"name": "Grant Bristow", "location": "Fulham Gardens, SA", "telephone": "417649300", "business": "Gb Electrical & Solar"}
{"name": "Robbie Britt", "location": "South Geelong, VIC", "telephone": "04 2587 0101", "business": "The Heat Shop"}
{"name": "Maurie Britt", "location": "South Geelong, VIC", "telephone": "03 5244 0222", "business": "The Heat Shop"}
{"name": "Shane Leonard Brittain", "location": "Munster, WA", "telephone": "0430 928 691", "business": "JFK Electrical, Solar & Air"}
{"name": "Thomas Britten", "location": "peregian springs, QLD", "telephone": "0432 818 108", "business": "Tom Britten Electrical"}
{"name": "Wayne Britton", "location": "Seville, VIC", "telephone": "0411251849", "business": "Britton Electrical Solutions"}
{"name": "Benjamin Broad", "location": "Narrogin, WA", "telephone": "0427 966 614", "business": "Broad Electrical and Air Conditioning"}
{"name": "Russell Broad", "location": "Bendigo, VIC", "telephone": "0429 422 420", "business": "Rb Electrical and Solar"}
{"name": "Peter Broadbelt", "location": "Biggera Waters, Queensland", "telephone": "0417 787 294", "business": "Peter Broadbelt Electrical Pty Ltd"}
{"name": "John Broadbent", "location": "Reynella, SA", "telephone": "0423286189", "business": "Individual"}
{"name": "Andy Broadbent", "location": "Laura, SA", "telephone": "08 86632659", "business": "Combined Electronic & Electrical Services"}
{"name": "Michael Broadby", "location": "Kingston SE, SA", "telephone": "", "business": "SM Watts Electrical"}
{"name": "Alex Broadhurst", "location": "Albury, NSW", "telephone": "0418 407 667", "business": "Watters Electrical"}
{"name": "Cody Brock", "location": "Harristown, QLD", "telephone": "458568939", "business": "Arctic Energy Services Pty Ltd"}
{"name": "Andrew Laurence Broderick", "location": "redland bay, Queensland", "telephone": "0434 216 474", "business": "Modus Projects"}
{"name": "David Brodie", "location": "Austinmer, NSW", "telephone": "0417 485 778", "business": "Austi Electrical"}
{"name": "Dean Broers", "location": "Menora, WA", "telephone": "04 1818 7444", "business": "Elements Energy"}
{"name": "Ian Bromfield", "location": "Bridgenorth, TAS", "telephone": "0418 869 173", "business": "Chugg Electrical Tasmania"}
{"name": "Peter Bromhead", "location": "Greenleigh, NSW", "telephone": "0418618463", "business": "Spectrum Solar & Electrical Pty Ltd"}
{"name": "Patrick Bromley", "location": "Benalla, VIC", "telephone": "0499 997 044", "business": "Sole Trader"}
{"name": "Colin Bromley", "location": "Romsey, VIC", "telephone": "354295938", "business": "CJ Bromley Electrical"}
{"name": "Jake Bromley", "location": "WONGALING BEACH, QLD", "telephone": "+61407351604", "business": "Mission Solar and Electrical"}
{"name": "Michael Brook", "location": "Bray Park, QLD", "telephone": "0499 974 619", "business": "01/01/2019"}
{"name": "Malcolm Brooker", "location": "Bowen, QLD", "telephone": "0747861684", "business": "affordable solar"}
{"name": "Paul Brooker", "location": "Rosebud, VIC", "telephone": "0419543969", "business": "Legend Electrics"}
{"name": "Daniel Brookes", "location": "Humpty Doo, NT", "telephone": "0450615020", "business": "IDAT"}
{"name": "Dallas Brookfield", "location": "Dubbo, NSW", "telephone": "0427 367 983", "business": "Western Solar & Electrical Solutions"}
{"name": "Jason Brookfield", "location": "COOROY, QLD", "telephone": "0408 639 076", "business": "Sole Trader"}
{"name": "David Mcalpine Brooks", "location": "Jewells, NSW", "telephone": "0432 501 160", "business": "Econnect"}
{"name": "Daniel Brooks", "location": "Traralgon, VIC", "telephone": "0434107957", "business": "Adsolar & Electrical"}
{"name": "Jason Brooks", "location": "Deception Bay, QLD", "telephone": "0419 630 784", "business": "QMS Electrical"}
{"name": "Michael Brooks", "location": "East Melbourne, VIC", "telephone": "412798199", "business": "Metta Energy"}
{"name": "Alan Brooks", "location": "Byron Bay, NSW", "telephone": "0411395593", "business": "Mr Electrical Pty Ltd"}
{"name": "Blake Brooks", "location": "Narrabri, NSW", "telephone": "0407960986", "business": "Narrabri Electrical Servies"}
{"name": "David Brooks", "location": "Sunnybank Hills, QLD", "telephone": "0738085553", "business": "Allround Electrical Services"}
{"name": "Harley Broom", "location": "Kawana, QLD", "telephone": "0498 881 448", "business": "J.A.F ELECTRICAL SOLUTIONS"}
{"name": "Hannes Brosch", "location": "Long Beach, NSW", "telephone": "0409940143", "business": "Solar Equipped Pty Ltd"}
{"name": "Isaac James Brosnan", "location": "Paddington, QLD", "telephone": "0418 655 142", "business": "Sole Trader"}
{"name": "Flynn Brosnan", "location": "Malvern East, VIC", "telephone": "0421 714 703", "business": "JE Electrical Solutions"}
{"name": "Cathal Brosnan", "location": "Diamond Creek, VIC", "telephone": "0450 186 862", "business": "Sole Trade"}
{"name": "Jason Brotherton", "location": "West Gosford, NSW", "telephone": "04 2732 1775", "business": "Jason Brotherton - Sole Trader"}
{"name": "Daniel Brown", "location": "Drouin, VIC", "telephone": "0456 770 460", "business": "Harding Electrical Services"}
{"name": "James Michael Brown", "location": "Fisher, ACT", "telephone": "0411 820 319", "business": "James Brown Electrical"}
{"name": "Glen Brown", "location": "Essendon North, VIC", "telephone": "0419 828 233", "business": "Solarhub"}
{"name": "William Charles Brown", "location": "Bridport, TAS", "telephone": "", "business": "DB Electrical Tasmania"}
{"name": "Daniel Brown", "location": "Ciccone, NT", "telephone": "04 4894 1919", "business": "Tr!pl3 Fire Electrical & Contracting"}
{"name": "Elias Brown", "location": "Sandy Beach, NSW", "telephone": "04 1124 2998", "business": "Solar powered homes"}
{"name": "Hamish Brown", "location": "North Manly, NSW", "telephone": "04 7812 9769", "business": "HB Electrical & Co PTY LTD"}
{"name": "Adam Brown", "location": "Charlestown, NSW", "telephone": "02 4009 1183", "business": "CJ Electrical & Solar Pty Ltd"}
{"name": "Aidan Keith Brown", "location": "Moranbah, QLD", "telephone": "0413 940 503", "business": "Hahnlec Pty Ltd"}
{"name": "Jeffrey Brown", "location": "Harden, NSW", "telephone": "0457 668 252", "business": "Stored Solar"}
{"name": "Codey Theodores Brown", "location": "Morphett Vale, SA", "telephone": "0426 220 427", "business": "NRG Solar Australia"}
{"name": "David Brown", "location": "Narangba, QLD", "telephone": "0420 717 492", "business": "SolarEdge Technologies (Australia) PTY LTD"}
{"name": "Cameron Vare Brown", "location": "Drouin, VIC", "telephone": "04 1880 7752", "business": "cbcabling"}
{"name": "Joshua Brown", "location": "Ferntree Gully, VIC", "telephone": "0403 671 612", "business": "Kik Electrics"}
{"name": "Gary David Brown", "location": "Camden, NSW", "telephone": "02 4647 0470", "business": "Case Statewide Solar"}
{"name": "Ashley James Brown", "location": "Portland, VIC", "telephone": "03 5523 4636", "business": "Day's Electrical Contracting"}
{"name": "Luke Thomas Brown", "location": "Swan Hill, VIC", "telephone": "0410 037 124", "business": "Luke Brown Electrical"}
{"name": "Simon Paul Brown", "location": "Elanora, QLD", "telephone": "0412 675 550", "business": "Safe-Tech Electrical"}
{"name": "Shaun Brown", "location": "Araluen, NT", "telephone": "0400 018 793", "business": "Tr!pl3 Fire, Electrical And Contracting"}
{"name": "Jeffrey Brown", "location": "Taree, NSW", "telephone": "02 6552 2779", "business": "J&S Brown Electrical Pty Ltd"}
{"name": "Michael David Brown", "location": "DENNINGTON, VIC", "telephone": "0439921647", "business": "MD Brown Electrical"}
{"name": "Benn Brown", "location": "Kingsley, WA", "telephone": "0422900993", "business": "BB Electrix Electrical Contractors"}
{"name": "Russell Brown", "location": "Riverstone, NSW", "telephone": "02 98387744", "business": "Kerfoot Pty Ltd"}
{"name": "Tyson Brown", "location": "Woodcroft, SA", "telephone": "0433 786 944", "business": "PB Power & Electrical"}
{"name": "Wayne Brown", "location": "Ulverstone, TAS", "telephone": "0409 843 359", "business": "WR & JM BROWN"}
{"name": "Nick Brown", "location": "North Nowra, NSW", "telephone": "02 4422 1244", "business": "Simmark"}
{"name": "Benjamin Brown", "location": "BURLEIGH BC, QLD", "telephone": "07 55201553", "business": "Oceanside Electrical Service"}
{"name": "Steven Brown", "location": "Mardi, NSW", "telephone": "0414 608 955", "business": "Sole Trader"}
{"name": "Jason James Brown", "location": "Emu Plains, NSW", "telephone": "0418 243 602", "business": "JTLM P/L t/a Greenwise Energy"}
{"name": "Cameron Brown", "location": "Bayswater, WA", "telephone": "0422 575 807", "business": "Sole Trader"}
{"name": "Russell Brown", "location": "Hamersley, WA", "telephone": "0418 294 108", "business": "Powerflex electrical"}
{"name": "William Matthew Brown", "location": "Davidson, NSW", "telephone": "0403 936 850", "business": "Sea Side Sparkies Pty Ltd"}
{"name": "Ryan Brown", "location": "Seaford Meadows, SA", "telephone": "0450622632", "business": "NG Elec"}
{"name": "Jeremy Brown", "location": "Tarneit, VIC", "telephone": "0400 113 095", "business": "iBrown Property t/a B Switch"}
{"name": "Callum Brown", "location": "Butler, WA", "telephone": "0407 339 218", "business": "Powershill"}
{"name": "Roger Brown", "location": "Mount Gambier West, SA", "telephone": "0448 415 872", "business": "Building Energy Solutions Pty Ltd."}
{"name": "Michael Brown", "location": "Port Lincoln, SA", "telephone": "0429 891 003", "business": "West Coast Wiring"}
{"name": "Jared Brown", "location": "Normanhurst, NSW", "telephone": "0414 885 339", "business": "Jared Brown Electrical"}
{"name": "Paul Brown", "location": "O'Sullivans Beach, SA", "telephone": "0411 260 648", "business": "PB Power and Electrical Pty Ltd"}
{"name": "Rhys Brown", "location": "Beaudesert, QLD", "telephone": "07 5541 4363", "business": "Rhys Brown Electrical Pty Ltd"}
{"name": "Michael Brown", "location": "Seymour, VIC", "telephone": "0431 790 010", "business": "Michael Brown Electrical Services"}
{"name": "Travis Brown", "location": "Pelican Waters, QLD", "telephone": "0400 035 442", "business": "Oceansun Electrical & Solar"}
{"name": "Nathan Brown", "location": "Richmond, NSW", "telephone": "02 4573 1441", "business": "All Natural Energy"}
{"name": "Billy Mason Browne", "location": "Jerramungup, WA", "telephone": "0427 475 712", "business": "Jerramungup Electrical Service"}
{"name": "James Browne", "location": "Daylesford, VIC", "telephone": "0427 536 956", "business": "Jbe Solar and Electrical"}
{"name": "Jesse Browne", "location": "Lilli Pilli, NSW", "telephone": "401283863", "business": "Jbe Solar and Electrical"}
{"name": "Damien Browne", "location": "Landsdale, WA", "telephone": "0499 974 765", "business": "Whitefox Electrical and Contracting Services"}
{"name": "Peter Browne", "location": "ASHWOOD, VIC", "telephone": "03 9807 2104", "business": "C Browne Electrics & Refrigeration"}
{"name": "Aaron Browne", "location": "Perth, WA", "telephone": "0423 350 656", "business": null}
{"name": "Daniel Bruce", "location": "Charleville, QLD", "telephone": "04 9183 3479", "business": "Bruce Air & Electrical"}
{"name": "David Bruce", "location": "Tullamarine, VIC", "telephone": "03 8335 9990", "business": "Essential Solar"}
{"name": "Corey Bruhn", "location": "Ferntree Gully, VIC", "telephone": "0410 858 625", "business": "Sky Energy"}
{"name": "Marcel Bruinette", "location": "AUSTINMER, NSW", "telephone": "0474 036 310", "business": "Spark and Clean Services"}
{"name": "Justin Bruning", "location": "Charnwood, ACT", "telephone": "0407 273 845", "business": "Brutech Electrical PTY LTD"}
{"name": "Giuseppe Bruno", "location": "Athelstone, SA", "telephone": "0402261536", "business": "Bruno Electrical"}
{"name": "Anthony Brunoli", "location": "Athol Park, SA", "telephone": "0403090158", "business": "APEX Electrical & Solar Services"}
{"name": "Chris Brunskill", "location": "Clifton Springs, VIC", "telephone": "0447 477 000", "business": "Beyond Electrical Co"}
{"name": "Andrew Bruxner", "location": "Burleigh Waters, QLD", "telephone": "04 0071 0321", "business": "Brux Electrical PTY LTD"}
{"name": "Lachlan Bryan", "location": "Rosebud, VIC", "telephone": "0422 280 639", "business": "Solar energy management"}
{"name": "Jeremy Bryan", "location": "bairnsdale, VIC", "telephone": "03 5152 7022", "business": "Solargain Gippsland"}
{"name": "David Bryan", "location": "Mount Martha, VIC", "telephone": "0400 500 222", "business": "100%electrics"}
{"name": "Joshua Bryant", "location": "Nirimba, Queensland", "telephone": "04 1833 6155", "business": "Solar Union"}
{"name": "Cain Bryant", "location": "Glenning Valley, NSW", "telephone": "+6 1411 8", "business": "Tru Blu Solar Co"}
{"name": "James Bryant", "location": "GAYNDAH, QLD", "telephone": "07 4161 2227", "business": "VIC BRYANT & CO"}
{"name": "Luke Ross Bryant", "location": "Mango hill, QLD", "telephone": "07 3285 2640", "business": "Surge It Solar and Electrical"}
{"name": "Daniel Bryant", "location": "Silvan, VIC", "telephone": "0401 751 267", "business": "Eastern Solar Cleaning and Maintenance"}
{"name": "James Brydon", "location": "Mooroolbark, VIC", "telephone": "0412 578 982", "business": "Sole Trader"}
{"name": "Matthew Bryksy", "location": "hawthorndene, SA", "telephone": "0413 278 017", "business": "Sole Trader"}
{"name": "Lario Brzovic", "location": "West Beach, SA", "telephone": "0431 224 741", "business": "adelaide connections electrical"}
{"name": "Michel Bucchi", "location": "hamilton south, NSW", "telephone": "0412725916", "business": "Sole Trader"}
{"name": "Shaun Buchan", "location": "maslin beach, SA", "telephone": "0401609080", "business": "Shaun Buchan"}
{"name": "Matthew William Buchanan", "location": "Capalaba, QLD", "telephone": "0478 826 140", "business": "Matthew Buchanan Sole Trader"}
{"name": "Philip Kenneth Buchanan", "location": "Research, VIC", "telephone": "0419 558 652", "business": "Envirogroup"}
{"name": "Brady Blake Buchanan", "location": "North Lakes, QLD", "telephone": "0403325119", "business": "Instyle Solar"}
{"name": "Daryl Buchanan", "location": "Eltham, VIC", "telephone": "0412 797 337", "business": "Rising Sun Electrics"}
{"name": "Adam Buchholz", "location": "rockhampton, QLD", "telephone": "0429182751", "business": "Kool Lec"}
{"name": "Jason Buchholz", "location": "Gladstone, QLD", "telephone": "0418 775 463", "business": "Innov8 Projects"}
{"name": "James Buchner", "location": "Womina, QLD", "telephone": "0423137409", "business": "JRB Electrical & Communications Pty Ltd"}
{"name": "Russell Buck", "location": "Beelerup, WA", "telephone": "0455 544 800", "business": "Plumbing Gas & Electrical Services"}
{"name": "Joseph Buckley", "location": "Canning Vale, WA", "telephone": "0467 337 907", "business": "Mlec Solar"}
{"name": "Marek Buckley", "location": "Ebbw Vale, QLD", "telephone": "0402 771 305", "business": "Solar Union"}
{"name": "Nicholas Buckley", "location": "Balgownie, NSW", "telephone": "0499 743 434", "business": "Clean Coast Solar & Electrical"}
